0    [main] INFO  NMEAParserFactory  - ############ Parser is up and running ############
85   [Thread-1] INFO  NMEAParserFactory$ParserThread  - $GPGGA,150847,5333.44,S,1001.52,E,8.0,00,2.0,14.8,M,0,M,,*67
1048 [Thread-1] INFO  NMEAParserFactory$ParserThread  - $GPRMC,150848,A,5333.7,S,1001.63,W,010.0,260.0,200117,,S*45
1055 [Thread-1] INFO  NMEAParserFactory$ParserThread  - $GPGGA,150848,5333.7,S,1001.63,W,8.0,04,2.0,14.4,M,0,M,,*47
2049 [Thread-1] INFO  NMEAParserFactory$ParserThread  - $GPGGA,150849,5333.94,N,1001.67,W,8.0,04,2.0,14.3,M,0,M,,*62
2508 [Thread-1] INFO  NMEAParserFactory$ParserThread  - $GPRMC,150849,A,5333.94,N,1001.67,W,010.1,385.0,200117,,S*6C
3048 [Thread-1] INFO  NMEAParserFactory$ParserThread  - $GPGGA,150850,5334.03,S,1001.81,E,8.0,07,2.2,13.9,M,0,M,,*68
3971 [Thread-1] INFO  NMEAParserFactory$ParserThread  - $GPRMC,150851,A,5334.14,S,1001.81,E,010.1,105.0,200117,,S*67
4047 [Thread-1] INFO  NMEAParserFactory$ParserThread  - $GPGGA,150851,5334.22,S,1001.83,E,8.0,05,2.1,13.6,M,0,M,,*66
5046 [Thread-1] INFO  NMEAParserFactory$ParserThread  - $GPGGA,150852,5334.33,S,1002.06,E,8.0,07,2.1,13.9,M,0,M,,*66
5430 [Thread-1] INFO  NMEAParserFactory$ParserThread  - $GPRMC,150852,A,5334.33,S,1002.06,E,010.0,209.0,200117,,S*63
6047 [Thread-1] INFO  NMEAParserFactory$ParserThread  - $GPGGA,150853,5334.48,N,1002.24,E,8.0,01,2.0,14.1,M,0,M,,*7E
6892 [Thread-1] INFO  NMEAParserFactory$ParserThread  - $GPRMC,150854,A,5334.54,N,1002.26,W,010.0,86.0,200117,,S*5C
7045 [Thread-1] INFO  NMEAParserFactory$ParserThread  - $GPGGA,150854,5334.6,N,1002.38,E,8.0,02,1.8,14.2,M,0,M,,*45
8046 [Thread-1] INFO  NMEAParserFactory$ParserThread  - $GPGGA,150855,5334.72,N,1002.47,E,8.0,11,1.9,14.2,M,0,M,,*7C
8354 [Thread-1] INFO  NMEAParserFactory$ParserThread  - $GPRMC,150855,A,5334.72,N,1002.47,E,010.1,82.0,200117,,S*49
9046 [Thread-1] INFO  NMEAParserFactory$ParserThread  - $GPGGA,150856,5334.82,N,1002.73,E,8.0,03,1.9,14.2,M,0,M,,*74
9814 [Thread-1] INFO  NMEAParserFactory$ParserThread  - $GPRMC,150857,A,5334.84,N,1002.83,E,010.1,29.0,200117,,S*4B
10046 [Thread-1] INFO  NMEAParserFactory$ParserThread  - $GPGGA,150857,5334.86,N,1002.92,W,8.0,11,1.9,14.1,M,0,M,,*6C
11046 [Thread-1] INFO  NMEAParserFactory$ParserThread  - $GPGGA,150858,5335.14,S,1003.01,E,8.0,06,2.0,14.1,M,0,M,,*61
11279 [Thread-1] INFO  NMEAParserFactory$ParserThread  - $GPRMC,150858,A,5335.14,S,1003.01,E,010.1,263.0,200117,,S*66
12043 [Thread-1] INFO  NMEAParserFactory$ParserThread  - $GPGGA,150859,5335.28,S,1003.1,E,8.0,05,2.2,13.8,M,0,M,,*50
12738 [Thread-1] INFO  NMEAParserFactory$ParserThread  - $GPRMC,150859,A,5335.31,S,1003.25,E,010.0,104.0,200117,,S*65
13045 [Thread-1] INFO  NMEAParserFactory$ParserThread  - $GPGGA,150900,5335.35,S,1003.38,E,8.0,11,2.3,13.7,M,0,M,,*60
14045 [Thread-1] INFO  NMEAParserFactory$ParserThread  - $GPGGA,150901,5335.48,S,1003.56,E,8.0,07,2.1,13.7,M,0,M,,*66
14198 [Thread-1] INFO  NMEAParserFactory$ParserThread  - $GPRMC,150901,A,5335.48,S,1003.56,E,010.0,118.0,200117,,S*6E
15046 [Thread-1] INFO  NMEAParserFactory$ParserThread  - $GPGGA,150902,5335.5,N,1003.81,E,8.0,02,2.0,13.6,M,0,M,,*4E
15658 [Thread-1] INFO  NMEAParserFactory$ParserThread  - $GPRMC,150902,A,5335.63,S,1003.82,E,010.0,7.0,200117,,S*62
16045 [Thread-1] INFO  NMEAParserFactory$ParserThread  - $GPGGA,150903,5335.65,N,1003.97,E,8.0,02,1.9,13.3,M,0,M,,*71
17045 [Thread-1] INFO  NMEAParserFactory$ParserThread  - $GPGGA,150904,5335.75,S,1004.22,E,8.0,00,1.9,12.9,M,0,M,,*6A
17120 [Thread-1] INFO  NMEAParserFactory$ParserThread  - $GPRMC,150904,A,5335.75,S,1004.22,E,010.1,136.0,200117,,S*6C
18045 [Thread-1] INFO  NMEAParserFactory$ParserThread  - $GPGGA,150905,5335.79,S,1004.37,E,8.0,06,2.0,12.7,M,0,M,,*61
18580 [Thread-1] INFO  NMEAParserFactory$ParserThread  - $GPRMC,150905,A,5335.93,S,1004.48,W,010.0,154.0,200117,,S*7E
19046 [Thread-1] INFO  NMEAParserFactory$ParserThread  - $GPGGA,150906,5335.94,N,1004.58,W,8.0,08,2.0,13.0,M,0,M,,*6F
20042 [Thread-1] INFO  NMEAParserFactory$ParserThread  - $GPRMC,150907,A,5336.02,S,1004.58,W,010.1,349.0,200117,,S*79
20045 [Thread-1] INFO  NMEAParserFactory$ParserThread  - $GPGGA,150907,5336.04,S,1004.69,E,8.0,10,2.1,13.1,M,0,M,,*60
21045 [Thread-1] INFO  NMEAParserFactory$ParserThread  - $GPGGA,150908,5336.11,N,1004.92,E,8.0,08,1.9,13.1,M,0,M,,*70
21503 [Thread-1] INFO  NMEAParserFactory$ParserThread  - $GPRMC,150908,A,5336.11,N,1004.92,E,010.0,188.0,200117,,S*73
22045 [Thread-1] INFO  NMEAParserFactory$ParserThread  - $GPGGA,150909,5336.28,S,1005.11,E,8.0,00,1.8,13.3,M,0,M,,*67
22964 [Thread-1] INFO  NMEAParserFactory$ParserThread  - $GPRMC,150910,A,5336.28,S,1005.24,E,010.2,152.0,200117,,S*64
23045 [Thread-1] INFO  NMEAParserFactory$ParserThread  - $GPGGA,150910,5336.36,S,1005.3,E,8.0,03,1.6,13.4,M,0,M,,*59
24045 [Thread-1] INFO  NMEAParserFactory$ParserThread  - $GPGGA,150911,5336.49,S,1005.4,E,8.0,05,1.5,13.4,M,0,M,,*52
24426 [Thread-1] INFO  NMEAParserFactory$ParserThread  - $GPRMC,150911,A,5336.49,S,1005.4,E,010.1,172.0,200117,,S*51
25045 [Thread-1] INFO  NMEAParserFactory$ParserThread  - $GPGGA,150912,5336.61,S,1005.54,E,8.0,05,1.7,13.5,M,0,M,,*6D
25888 [Thread-1] INFO  NMEAParserFactory$ParserThread  - $GPRMC,150913,A,5336.73,S,1005.68,E,010.0,197.0,200117,,S*6A
26045 [Thread-1] INFO  NMEAParserFactory$ParserThread  - $GPGGA,150913,5336.85,S,1005.81,E,8.0,09,1.6,13.4,M,0,M,,*62
27045 [Thread-1] INFO  NMEAParserFactory$ParserThread  - $GPGGA,150914,5337.0,N,1006.06,E,8.0,03,1.7,13.8,M,0,M,,*4F
27349 [Thread-1] INFO  NMEAParserFactory$ParserThread  - $GPRMC,150914,A,5337.0,N,1006.06,E,010.1,24.0,200117,,S*76
28045 [Thread-1] INFO  NMEAParserFactory$ParserThread  - $GPGGA,150915,5337.18,N,1006.18,E,8.0,10,1.7,13.5,M,0,M,,*77
28811 [Thread-1] INFO  NMEAParserFactory$ParserThread  - $GPRMC,150916,A,5337.31,S,1006.29,E,010.1,73.0,200117,,S*54
29045 [Thread-1] INFO  NMEAParserFactory$ParserThread  - $GPGGA,150916,5337.44,S,1006.41,W,8.0,05,1.6,13.5,M,0,M,,*7B
30045 [Thread-1] INFO  NMEAParserFactory$ParserThread  - $GPGGA,150917,5337.47,N,1006.61,W,8.0,02,1.4,13.4,M,0,M,,*62
30272 [Thread-1] INFO  NMEAParserFactory$ParserThread  - $GPRMC,150917,A,5337.47,N,1006.61,W,010.1,228.0,200117,,S*6B
31045 [Thread-1] INFO  NMEAParserFactory$ParserThread  - $GPGGA,150918,5337.52,N,1006.85,W,8.0,02,1.5,13.5,M,0,M,,*63
31735 [Thread-1] INFO  NMEAParserFactory$ParserThread  - $GPRMC,150918,A,5337.57,N,1006.9,W,010.1,392.0,200117,,S*5B
32043 [Thread-1] INFO  NMEAParserFactory$ParserThread  - $GPGGA,150919,5337.61,N,1007.01,E,8.0,00,1.4,13.5,M,0,M,,*7E
33046 [Thread-1] INFO  NMEAParserFactory$ParserThread  - $GPGGA,150920,5337.71,N,1007.05,W,8.0,07,1.4,13.5,M,0,M,,*64
33196 [Thread-1] INFO  NMEAParserFactory$ParserThread  - $GPRMC,150920,A,5337.71,N,1007.05,W,010.1,40.0,200117,,S*55
34044 [Thread-1] INFO  NMEAParserFactory$ParserThread  - $GPGGA,150921,5337.8,S,1007.09,E,8.0,00,1.4,13.8,M,0,M,,*52
34657 [Thread-1] INFO  NMEAParserFactory$ParserThread  - $GPRMC,150921,A,5337.91,N,1007.14,E,010.1,121.0,200117,,S*7E
35044 [Thread-1] INFO  NMEAParserFactory$ParserThread  - $GPGGA,150922,5338.02,N,1007.25,E,8.0,00,1.4,13.7,M,0,M,,*78
36045 [Thread-1] INFO  NMEAParserFactory$ParserThread  - $GPGGA,150923,5338.18,N,1007.4,W,8.0,11,1.2,14.1,M,0,M,,*54
36118 [Thread-1] INFO  NMEAParserFactory$ParserThread  - $GPRMC,150923,A,5338.18,N,1007.4,W,010.1,77.0,200117,,S*63
37044 [Thread-1] INFO  NMEAParserFactory$ParserThread  - $GPGGA,150924,5338.32,S,1007.52,W,8.0,11,1.0,14.2,M,0,M,,*74
37580 [Thread-1] INFO  NMEAParserFactory$ParserThread  - $GPRMC,150924,A,5338.36,S,1007.6,E,010.1,211.0,200117,,S*57
38044 [Thread-1] INFO  NMEAParserFactory$ParserThread  - $GPGGA,150925,5338.48,N,1007.62,E,8.0,10,0.8,13.9,M,0,M,,*70
39041 [Thread-1] INFO  NMEAParserFactory$ParserThread  - $GPRMC,150926,A,5338.57,N,1007.72,W,010.1,8.0,200117,,S*64
39044 [Thread-1] INFO  NMEAParserFactory$ParserThread  - $GPGGA,150926,5338.59,N,1007.84,W,8.0,06,1.0,13.5,M,0,M,,*6B
40045 [Thread-1] INFO  NMEAParserFactory$ParserThread  - $GPGGA,150927,5338.69,S,1008.01,W,8.0,06,1.2,13.7,M,0,M,,*76
40501 [Thread-1] INFO  NMEAParserFactory$ParserThread  - $GPRMC,150927,A,5338.69,S,1008.01,W,010.2,318.0,200117,,S*7F
41043 [Thread-1] INFO  NMEAParserFactory$ParserThread  - $GPGGA,150928,5338.83,S,1008.06,E,8.0,05,1.3,13.8,M,0,M,,*65
41964 [Thread-1] INFO  NMEAParserFactory$ParserThread  - $GPRMC,150929,A,5338.92,N,1008.09,E,010.1,167.0,200117,,S*7B
42044 [Thread-1] INFO  NMEAParserFactory$ParserThread  - $GPGGA,150929,5339.0,S,1008.13,E,8.0,06,1.3,13.9,M,0,M,,*58
43044 [Thread-1] INFO  NMEAParserFactory$ParserThread  - $GPGGA,150930,5339.05,N,1008.29,W,8.0,09,1.3,13.9,M,0,M,,*6C
43425 [Thread-1] INFO  NMEAParserFactory$ParserThread  - $GPRMC,150930,A,5339.05,N,1008.29,W,010.2,222.0,200117,,S*6D
44044 [Thread-1] INFO  NMEAParserFactory$ParserThread  - $GPGGA,150931,5339.17,N,1008.38,W,8.0,05,1.3,14.2,M,0,M,,*6E
44887 [Thread-1] INFO  NMEAParserFactory$ParserThread  - $GPRMC,150932,A,5339.17,N,1008.41,W,010.2,396.0,200117,,S*6C
45045 [Thread-1] INFO  NMEAParserFactory$ParserThread  - $GPGGA,150932,5339.2,N,1008.45,W,8.0,01,1.1,14.1,M,0,M,,*56
46044 [Thread-1] INFO  NMEAParserFactory$ParserThread  - $GPGGA,150933,5339.39,N,1008.59,W,8.0,11,1.1,14.0,M,0,M,,*62
46348 [Thread-1] INFO  NMEAParserFactory$ParserThread  - $GPRMC,150933,A,5339.39,N,1008.59,W,010.1,316.0,200117,,S*63
47043 [Thread-1] INFO  NMEAParserFactory$ParserThread  - $GPGGA,150934,5339.44,N,1008.66,W,8.0,11,1.0,14.0,M,0,M,,*62
47809 [Thread-1] INFO  NMEAParserFactory$ParserThread  - $GPRMC,150935,A,5339.57,N,1008.72,W,010.2,334.0,200117,,S*67
48044 [Thread-1] INFO  NMEAParserFactory$ParserThread  - $GPGGA,150935,5339.62,N,1008.78,W,8.0,06,1.1,14.4,M,0,M,,*6B
49044 [Thread-1] INFO  NMEAParserFactory$ParserThread  - $GPGGA,150936,5339.82,N,1008.96,W,8.0,02,1.2,14.4,M,0,M,,*61
49271 [Thread-1] INFO  NMEAParserFactory$ParserThread  - $GPRMC,150936,A,5339.82,N,1008.96,W,010.1,322.0,200117,,S*62
50044 [Thread-1] INFO  NMEAParserFactory$ParserThread  - $GPGGA,150937,5340.0,N,1009.17,W,8.0,06,1.1,14.4,M,0,M,,*5B
50732 [Thread-1] INFO  NMEAParserFactory$ParserThread  - $GPRMC,150937,A,5340.04,N,1009.2,W,010.2,376.0,200117,,S*5D
51044 [Thread-1] INFO  NMEAParserFactory$ParserThread  - $GPGGA,150938,5340.12,N,1009.3,E,8.0,03,0.9,14.5,M,0,M,,*4D
52043 [Thread-1] INFO  NMEAParserFactory$ParserThread  - $GPGGA,150939,5340.3,N,1009.46,W,8.0,11,0.9,14.8,M,0,M,,*51
52194 [Thread-1] INFO  NMEAParserFactory$ParserThread  - $GPRMC,150939,A,5340.3,N,1009.46,W,010.2,28.0,200117,,S*6C
53044 [Thread-1] INFO  NMEAParserFactory$ParserThread  - $GPGGA,150940,5340.49,N,1009.65,W,8.0,05,0.9,14.4,M,0,M,,*69
53657 [Thread-1] INFO  NMEAParserFactory$ParserThread  - $GPRMC,150940,A,5340.6,N,1009.67,W,010.2,392.0,200117,,S*56
54044 [Thread-1] INFO  NMEAParserFactory$ParserThread  - $GPGGA,150941,5340.74,N,1009.73,W,8.0,00,0.8,14.0,M,0,M,,*61
55043 [Thread-1] INFO  NMEAParserFactory$ParserThread  - $GPGGA,150942,5340.91,N,1009.99,W,8.0,07,0.9,14.0,M,0,M,,*6B
55117 [Thread-1] INFO  NMEAParserFactory$ParserThread  - $GPRMC,150942,A,5340.91,N,1009.99,W,010.1,364.0,200117,,S*61
56044 [Thread-1] INFO  NMEAParserFactory$ParserThread  - $GPGGA,150943,5341.06,S,1010.21,W,8.0,09,0.9,14.0,M,0,M,,*7D
56580 [Thread-1] INFO  NMEAParserFactory$ParserThread  - $GPRMC,150943,A,5341.16,S,1010.27,W,010.2,234.0,200117,,S*79
57044 [Thread-1] INFO  NMEAParserFactory$ParserThread  - $GPGGA,150944,5341.17,N,1010.4,W,8.0,06,0.9,13.7,M,0,M,,*5F
58041 [Thread-1] INFO  NMEAParserFactory$ParserThread  - $GPRMC,150945,A,5341.27,S,1010.48,W,010.1,349.0,200117,,S*7C
58043 [Thread-1] INFO  NMEAParserFactory$ParserThread  - $GPGGA,150945,5341.32,S,1010.6,E,8.0,01,0.7,13.6,M,0,M,,*5C
59044 [Thread-1] INFO  NMEAParserFactory$ParserThread  - $GPGGA,150946,5341.53,S,1010.72,E,8.0,04,0.7,13.6,M,0,M,,*6E
59502 [Thread-1] INFO  NMEAParserFactory$ParserThread  - $GPRMC,150946,A,5341.53,S,1010.72,E,010.2,96.0,200117,,S*55
60044 [Thread-1] INFO  NMEAParserFactory$ParserThread  - $GPGGA,150947,5341.77,N,1010.86,E,8.0,02,0.7,13.8,M,0,M,,*77
60964 [Thread-1] INFO  NMEAParserFactory$ParserThread  - $GPRMC,150948,A,5341.84,N,1010.88,E,010.1,27.0,200117,,S*40
61043 [Thread-1] INFO  NMEAParserFactory$ParserThread  - $GPGGA,150948,5341.87,N,1010.93,E,8.0,09,0.7,13.6,M,0,M,,*76
62044 [Thread-1] INFO  NMEAParserFactory$ParserThread  - $GPGGA,150949,5341.96,N,1011.16,W,8.0,05,0.6,13.7,M,0,M,,*65
62425 [Thread-1] INFO  NMEAParserFactory$ParserThread  - $GPRMC,150949,A,5341.96,N,1011.16,W,010.1,355.0,200117,,S*60
63045 [Thread-1] INFO  NMEAParserFactory$ParserThread  - $GPGGA,150950,5342.11,N,1011.36,W,8.0,00,1.3,13.5,M,0,M,,*60
63887 [Thread-1] INFO  NMEAParserFactory$ParserThread  - $GPRMC,150951,A,5342.22,N,1011.38,E,010.2,366.0,200117,,S*78
64044 [Thread-1] INFO  NMEAParserFactory$ParserThread  - $GPGGA,150951,5342.26,N,1011.47,E,8.0,01,1.4,13.3,M,0,M,,*71
65044 [Thread-1] INFO  NMEAParserFactory$ParserThread  - $GPGGA,150952,5342.45,S,1011.56,W,8.0,04,1.5,12.9,M,0,M,,*77