Dez 27, 2016 1:57:21 AM gps.NMEA.utils.ChecksumUtilities getCRC
INFORMATION: Created CRC (65)  for Sentence: $GPGGA,015721,5333.51,S,1001.45,E,8.0,06,2.1,15.1,M,0,M,,
Dez 27, 2016 1:57:21 AM gps.NMEA.utils.ChecksumUtilities getCRC
INFORMATION: Created CRC (65)  for Sentence: $GPGGA,015721,5333.51,S,1001.45,E,8.0,06,2.1,15.1,M,0,M,,
Dez 27, 2016 1:57:21 AM gps.NMEA.utils.ChecksumUtilities getCRC
INFORMATION: Created CRC (65)  for Sentence: $GPGGA,015721,5333.51,S,1001.45,E,8.0,06,2.1,15.1,M,0,M,,
Dez 27, 2016 1:57:22 AM gps.NMEA.utils.ChecksumUtilities getCRC
INFORMATION: Created CRC (43)  for Sentence: $GPRMC,015722,A,5333.61,N,1001.68,E,010.1,99.0,271216,,S
Dez 27, 2016 1:57:22 AM gps.NMEA.utils.ChecksumUtilities getCRC
INFORMATION: Created CRC (43)  for Sentence: $GPRMC,015722,A,5333.61,N,1001.68,E,010.1,99.0,271216,,S
Dez 27, 2016 1:57:22 AM gps.NMEA.utils.ChecksumUtilities getCRC
INFORMATION: Created CRC (7A)  for Sentence: $GPGGA,015722,5333.61,N,1001.68,E,8.0,09,2.2,15.0,M,0,M,,
Dez 27, 2016 1:57:22 AM gps.NMEA.utils.ChecksumUtilities getCRC
INFORMATION: Created CRC (7A)  for Sentence: $GPGGA,015722,5333.61,N,1001.68,E,8.0,09,2.2,15.0,M,0,M,,
Dez 27, 2016 1:57:22 AM gps.NMEA.utils.ChecksumUtilities getCRC
INFORMATION: Created CRC (43)  for Sentence: $GPRMC,015722,A,5333.61,N,1001.68,E,010.1,99.0,271216,,S
Dez 27, 2016 1:57:22 AM gps.NMEA.utils.ChecksumUtilities getCRC
INFORMATION: Created CRC (7A)  for Sentence: $GPGGA,015722,5333.61,N,1001.68,E,8.0,09,2.2,15.0,M,0,M,,
Dez 27, 2016 1:57:23 AM gps.NMEA.utils.ChecksumUtilities getCRC
INFORMATION: Created CRC (5A)  for Sentence: $GPGGA,015723,5333.83,N,1001.8,W,8.0,05,2.3,15.4,M,0,M,,
Dez 27, 2016 1:57:23 AM gps.NMEA.utils.ChecksumUtilities getCRC
INFORMATION: Created CRC (5A)  for Sentence: $GPGGA,015723,5333.83,N,1001.8,W,8.0,05,2.3,15.4,M,0,M,,
Dez 27, 2016 1:57:23 AM gps.NMEA.utils.ChecksumUtilities getCRC
INFORMATION: Created CRC (5A)  for Sentence: $GPGGA,015723,5333.83,N,1001.8,W,8.0,05,2.3,15.4,M,0,M,,
Dez 27, 2016 1:57:23 AM gps.NMEA.utils.ChecksumUtilities getCRC
INFORMATION: Created CRC (5F)  for Sentence: $GPRMC,015723,A,5333.83,N,1001.8,W,010.1,353.0,271216,,S
Dez 27, 2016 1:57:24 AM gps.NMEA.utils.ChecksumUtilities getCRC
INFORMATION: Created CRC (68)  for Sentence: $GPRMC,015724,A,5333.92,N,1001.93,W,010.0,341.0,271216,,S
Dez 27, 2016 1:57:24 AM gps.NMEA.utils.ChecksumUtilities getCRC
INFORMATION: Created CRC (68)  for Sentence: $GPRMC,015724,A,5333.92,N,1001.93,W,010.0,341.0,271216,,S
Dez 27, 2016 1:57:24 AM gps.NMEA.utils.ChecksumUtilities getCRC
INFORMATION: Created CRC (66)  for Sentence: $GPGGA,015724,5333.99,N,1001.96,W,8.0,07,2.2,15.0,M,0,M,,
Dez 27, 2016 1:57:24 AM gps.NMEA.utils.ChecksumUtilities getCRC
INFORMATION: Created CRC (66)  for Sentence: $GPGGA,015724,5333.99,N,1001.96,W,8.0,07,2.2,15.0,M,0,M,,
Dez 27, 2016 1:57:24 AM gps.NMEA.utils.ChecksumUtilities getCRC
INFORMATION: Created CRC (66)  for Sentence: $GPGGA,015724,5333.99,N,1001.96,W,8.0,07,2.2,15.0,M,0,M,,
Dez 27, 2016 1:57:24 AM gps.NMEA.utils.ChecksumUtilities getCRC
INFORMATION: Created CRC (4E)  for Sentence: $GPRMC,015724,A,5334.03,N,1002.01,E,010.1,51.0,271216,,S
Dez 27, 2016 1:57:25 AM gps.NMEA.utils.ChecksumUtilities getCRC
INFORMATION: Created CRC (7F)  for Sentence: $GPGGA,015725,5334.15,N,1002.11,E,8.0,02,2.2,15.0,M,0,M,,
Dez 27, 2016 1:57:25 AM gps.NMEA.utils.ChecksumUtilities getCRC
INFORMATION: Created CRC (7F)  for Sentence: $GPGGA,015725,5334.15,N,1002.11,E,8.0,02,2.2,15.0,M,0,M,,
Dez 27, 2016 1:57:25 AM gps.NMEA.utils.ChecksumUtilities getCRC
INFORMATION: Created CRC (7F)  for Sentence: $GPGGA,015725,5334.15,N,1002.11,E,8.0,02,2.2,15.0,M,0,M,,
Dez 27, 2016 1:57:26 AM gps.NMEA.utils.ChecksumUtilities getCRC
INFORMATION: Created CRC (4E)  for Sentence: $GPRMC,015726,A,5334.28,N,1002.18,E,010.0,60.0,271216,,S
Dez 27, 2016 1:57:26 AM gps.NMEA.utils.ChecksumUtilities getCRC
INFORMATION: Created CRC (4E)  for Sentence: $GPRMC,015726,A,5334.28,N,1002.18,E,010.0,60.0,271216,,S
Dez 27, 2016 1:57:26 AM gps.NMEA.utils.ChecksumUtilities getCRC
INFORMATION: Created CRC (4E)  for Sentence: $GPRMC,015726,A,5334.28,N,1002.18,E,010.0,60.0,271216,,S
Dez 27, 2016 1:57:26 AM gps.NMEA.utils.ChecksumUtilities getCRC
INFORMATION: Created CRC (66)  for Sentence: $GPGGA,015726,5334.38,S,1002.21,E,8.0,09,2.3,15.1,M,0,M,,
Dez 27, 2016 1:57:26 AM gps.NMEA.utils.ChecksumUtilities getCRC
INFORMATION: Created CRC (66)  for Sentence: $GPGGA,015726,5334.38,S,1002.21,E,8.0,09,2.3,15.1,M,0,M,,
Dez 27, 2016 1:57:26 AM gps.NMEA.utils.ChecksumUtilities getCRC
INFORMATION: Created CRC (66)  for Sentence: $GPGGA,015726,5334.38,S,1002.21,E,8.0,09,2.3,15.1,M,0,M,,
Dez 27, 2016 1:57:27 AM gps.NMEA.utils.ChecksumUtilities getCRC
INFORMATION: Created CRC (5D)  for Sentence: $GPGGA,015727,5334.64,N,1002.4,W,8.0,07,2.1,14.7,M,0,M,,
Dez 27, 2016 1:57:27 AM gps.NMEA.utils.ChecksumUtilities getCRC
INFORMATION: Created CRC (5D)  for Sentence: $GPGGA,015727,5334.64,N,1002.4,W,8.0,07,2.1,14.7,M,0,M,,
Dez 27, 2016 1:57:27 AM gps.NMEA.utils.ChecksumUtilities getCRC
INFORMATION: Created CRC (5D)  for Sentence: $GPGGA,015727,5334.64,N,1002.4,W,8.0,07,2.1,14.7,M,0,M,,
Dez 27, 2016 1:57:27 AM gps.NMEA.utils.ChecksumUtilities getCRC
INFORMATION: Created CRC (5C)  for Sentence: $GPRMC,015727,A,5334.64,N,1002.4,W,010.1,388.0,271216,,S
Dez 27, 2016 1:57:28 AM gps.NMEA.utils.ChecksumUtilities getCRC
INFORMATION: Created CRC (69)  for Sentence: $GPRMC,015728,A,5334.66,N,1002.54,W,010.0,359.0,271216,,S
Dez 27, 2016 1:57:28 AM gps.NMEA.utils.ChecksumUtilities getCRC
INFORMATION: Created CRC (69)  for Sentence: $GPRMC,015728,A,5334.66,N,1002.54,W,010.0,359.0,271216,,S
Dez 27, 2016 1:57:28 AM gps.NMEA.utils.ChecksumUtilities getCRC
INFORMATION: Created CRC (68)  for Sentence: $GPGGA,015728,5334.76,N,1002.59,W,8.0,09,2.0,14.9,M,0,M,,
Dez 27, 2016 1:57:28 AM gps.NMEA.utils.ChecksumUtilities getCRC
INFORMATION: Created CRC (68)  for Sentence: $GPGGA,015728,5334.76,N,1002.59,W,8.0,09,2.0,14.9,M,0,M,,
Dez 27, 2016 1:57:28 AM gps.NMEA.utils.ChecksumUtilities getCRC
INFORMATION: Created CRC (68)  for Sentence: $GPGGA,015728,5334.76,N,1002.59,W,8.0,09,2.0,14.9,M,0,M,,
Dez 27, 2016 1:57:28 AM gps.NMEA.utils.ChecksumUtilities getCRC
INFORMATION: Created CRC (6F)  for Sentence: $GPRMC,015728,A,5334.76,N,1002.59,W,010.1,316.0,271216,,S
Dez 27, 2016 1:57:29 AM gps.NMEA.utils.ChecksumUtilities getCRC
INFORMATION: Created CRC (74)  for Sentence: $GPGGA,015729,5334.91,N,1002.77,E,8.0,10,2.2,14.9,M,0,M,,
Dez 27, 2016 1:57:29 AM gps.NMEA.utils.ChecksumUtilities getCRC
INFORMATION: Created CRC (74)  for Sentence: $GPGGA,015729,5334.91,N,1002.77,E,8.0,10,2.2,14.9,M,0,M,,
Dez 27, 2016 1:57:29 AM gps.NMEA.utils.ChecksumUtilities getCRC
INFORMATION: Created CRC (74)  for Sentence: $GPGGA,015729,5334.91,N,1002.77,E,8.0,10,2.2,14.9,M,0,M,,
Dez 27, 2016 1:57:30 AM gps.NMEA.utils.ChecksumUtilities getCRC
INFORMATION: Created CRC (4B)  for Sentence: $GPRMC,015730,A,5334.93,N,1002.83,E,010.0,35.0,271216,,S
Dez 27, 2016 1:57:30 AM gps.NMEA.utils.ChecksumUtilities getCRC
INFORMATION: Created CRC (4B)  for Sentence: $GPRMC,015730,A,5334.93,N,1002.83,E,010.0,35.0,271216,,S
Dez 27, 2016 1:57:30 AM gps.NMEA.utils.ChecksumUtilities getCRC
INFORMATION: Created CRC (4B)  for Sentence: $GPRMC,015730,A,5334.93,N,1002.83,E,010.0,35.0,271216,,S
Dez 27, 2016 1:57:30 AM gps.NMEA.utils.ChecksumUtilities getCRC
INFORMATION: Created CRC (72)  for Sentence: $GPGGA,015730,5334.93,N,1002.83,E,8.0,04,2.1,14.8,M,0,M,,
Dez 27, 2016 1:57:30 AM gps.NMEA.utils.ChecksumUtilities getCRC
INFORMATION: Created CRC (72)  for Sentence: $GPGGA,015730,5334.93,N,1002.83,E,8.0,04,2.1,14.8,M,0,M,,
Dez 27, 2016 1:57:30 AM gps.NMEA.utils.ChecksumUtilities getCRC
INFORMATION: Created CRC (72)  for Sentence: $GPGGA,015730,5334.93,N,1002.83,E,8.0,04,2.1,14.8,M,0,M,,
Dez 27, 2016 1:57:31 AM gps.NMEA.utils.ChecksumUtilities getCRC
INFORMATION: Created CRC (77)  for Sentence: $GPGGA,015731,5335.02,N,1002.93,E,8.0,08,2.1,14.8,M,0,M,,
Dez 27, 2016 1:57:31 AM gps.NMEA.utils.ChecksumUtilities getCRC
INFORMATION: Created CRC (77)  for Sentence: $GPGGA,015731,5335.02,N,1002.93,E,8.0,08,2.1,14.8,M,0,M,,
Dez 27, 2016 1:57:31 AM gps.NMEA.utils.ChecksumUtilities getCRC
INFORMATION: Created CRC (77)  for Sentence: $GPGGA,015731,5335.02,N,1002.93,E,8.0,08,2.1,14.8,M,0,M,,
Dez 27, 2016 1:57:31 AM gps.NMEA.utils.ChecksumUtilities getCRC
INFORMATION: Created CRC (44)  for Sentence: $GPRMC,015731,A,5335.02,N,1002.93,E,010.1,76.0,271216,,S
Dez 27, 2016 1:57:31 AM gps.NMEA.utils.ChecksumUtilities getCRC
INFORMATION: Created CRC (6F)  for Sentence: $GPRMC,015731,A,5335.14,N,1002.99,W,010.0,343.0,271216,,S
Dez 27, 2016 1:57:32 AM gps.NMEA.utils.ChecksumUtilities getCRC
INFORMATION: Created CRC (6C)  for Sentence: $GPRMC,015732,A,5335.14,N,1002.99,W,010.0,343.0,271216,,S
Dez 27, 2016 1:57:32 AM gps.NMEA.utils.ChecksumUtilities getCRC
INFORMATION: Created CRC (76)  for Sentence: $GPGGA,015732,5335.21,S,1003.02,W,8.0,00,2.2,14.6,M,0,M,,
Dez 27, 2016 1:57:32 AM gps.NMEA.utils.ChecksumUtilities getCRC
INFORMATION: Created CRC (76)  for Sentence: $GPGGA,015732,5335.21,S,1003.02,W,8.0,00,2.2,14.6,M,0,M,,
Dez 27, 2016 1:57:32 AM gps.NMEA.utils.ChecksumUtilities getCRC
INFORMATION: Created CRC (76)  for Sentence: $GPGGA,015732,5335.21,S,1003.02,W,8.0,00,2.2,14.6,M,0,M,,
Dez 27, 2016 1:57:32 AM gps.NMEA.utils.ChecksumUtilities getCRC
INFORMATION: Created CRC (74)  for Sentence: $GPRMC,015732,A,5335.21,S,1003.02,W,010.1,234.0,271216,,S
Dez 27, 2016 1:57:33 AM gps.NMEA.utils.ChecksumUtilities getCRC
INFORMATION: Created CRC (7F)  for Sentence: $GPGGA,015733,5335.29,S,1003.13,W,8.0,05,2.3,14.2,M,0,M,,
Dez 27, 2016 1:57:33 AM gps.NMEA.utils.ChecksumUtilities getCRC
INFORMATION: Created CRC (7F)  for Sentence: $GPGGA,015733,5335.29,S,1003.13,W,8.0,05,2.3,14.2,M,0,M,,
Dez 27, 2016 1:57:33 AM gps.NMEA.utils.ChecksumUtilities getCRC
INFORMATION: Created CRC (7F)  for Sentence: $GPGGA,015733,5335.29,S,1003.13,W,8.0,05,2.3,14.2,M,0,M,,
Dez 27, 2016 1:57:33 AM gps.NMEA.utils.ChecksumUtilities getCRC
INFORMATION: Created CRC (73)  for Sentence: $GPRMC,015733,A,5335.29,S,1003.13,W,010.0,280.0,271216,,S
Dez 27, 2016 1:57:34 AM gps.NMEA.utils.ChecksumUtilities getCRC
INFORMATION: Created CRC (6A)  for Sentence: $GPRMC,015734,A,5335.38,S,1003.21,E,010.0,171.0,271216,,S
Dez 27, 2016 1:57:34 AM gps.NMEA.utils.ChecksumUtilities getCRC
INFORMATION: Created CRC (6A)  for Sentence: $GPRMC,015734,A,5335.38,S,1003.21,E,010.0,171.0,271216,,S
Dez 27, 2016 1:57:34 AM gps.NMEA.utils.ChecksumUtilities getCRC
INFORMATION: Created CRC (75)  for Sentence: $GPGGA,015734,5335.39,S,1003.28,W,8.0,03,2.1,14.2,M,0,M,,
Dez 27, 2016 1:57:34 AM gps.NMEA.utils.ChecksumUtilities getCRC
INFORMATION: Created CRC (75)  for Sentence: $GPGGA,015734,5335.39,S,1003.28,W,8.0,03,2.1,14.2,M,0,M,,
Dez 27, 2016 1:57:34 AM gps.NMEA.utils.ChecksumUtilities getCRC
INFORMATION: Created CRC (75)  for Sentence: $GPGGA,015734,5335.39,S,1003.28,W,8.0,03,2.1,14.2,M,0,M,,
Dez 27, 2016 1:57:35 AM gps.NMEA.utils.ChecksumUtilities getCRC
INFORMATION: Created CRC (6A)  for Sentence: $GPRMC,015735,A,5335.48,N,1003.32,W,010.1,397.0,271216,,S
Dez 27, 2016 1:57:35 AM gps.NMEA.utils.ChecksumUtilities getCRC
INFORMATION: Created CRC (73)  for Sentence: $GPGGA,015735,5335.61,N,1003.45,E,8.0,09,2.2,14.5,M,0,M,,
Dez 27, 2016 1:57:35 AM gps.NMEA.utils.ChecksumUtilities getCRC
INFORMATION: Created CRC (73)  for Sentence: $GPGGA,015735,5335.61,N,1003.45,E,8.0,09,2.2,14.5,M,0,M,,
Dez 27, 2016 1:57:35 AM gps.NMEA.utils.ChecksumUtilities getCRC
INFORMATION: Created CRC (73)  for Sentence: $GPGGA,015735,5335.61,N,1003.45,E,8.0,09,2.2,14.5,M,0,M,,
Dez 27, 2016 1:57:35 AM gps.NMEA.utils.ChecksumUtilities getCRC
INFORMATION: Created CRC (4B)  for Sentence: $GPRMC,015735,A,5335.61,N,1003.45,E,010.0,37.0,271216,,S
Dez 27, 2016 1:57:35 AM gps.NMEA.utils.ChecksumUtilities getCRC
INFORMATION: Created CRC (4B)  for Sentence: $GPRMC,015735,A,5335.72,N,1003.58,E,010.0,39.0,271216,,S
Dez 27, 2016 1:57:36 AM gps.NMEA.utils.ChecksumUtilities getCRC
INFORMATION: Created CRC (68)  for Sentence: $GPGGA,015736,5335.81,S,1003.64,E,8.0,00,2.1,14.7,M,0,M,,
Dez 27, 2016 1:57:36 AM gps.NMEA.utils.ChecksumUtilities getCRC
INFORMATION: Created CRC (68)  for Sentence: $GPGGA,015736,5335.81,S,1003.64,E,8.0,00,2.1,14.7,M,0,M,,
Dez 27, 2016 1:57:36 AM gps.NMEA.utils.ChecksumUtilities getCRC
INFORMATION: Created CRC (68)  for Sentence: $GPGGA,015736,5335.81,S,1003.64,E,8.0,00,2.1,14.7,M,0,M,,
Dez 27, 2016 1:57:36 AM gps.NMEA.utils.ChecksumUtilities getCRC
INFORMATION: Created CRC (64)  for Sentence: $GPRMC,015736,A,5335.81,S,1003.64,E,010.1,180.0,271216,,S
Dez 27, 2016 1:57:37 AM gps.NMEA.utils.ChecksumUtilities getCRC
INFORMATION: Created CRC (55)  for Sentence: $GPGGA,015737,5336.1,S,1003.77,E,8.0,05,2.2,14.4,M,0,M,,
Dez 27, 2016 1:57:37 AM gps.NMEA.utils.ChecksumUtilities getCRC
INFORMATION: Created CRC (55)  for Sentence: $GPGGA,015737,5336.1,S,1003.77,E,8.0,05,2.2,14.4,M,0,M,,
Dez 27, 2016 1:57:37 AM gps.NMEA.utils.ChecksumUtilities getCRC
INFORMATION: Created CRC (55)  for Sentence: $GPGGA,015737,5336.1,S,1003.77,E,8.0,05,2.2,14.4,M,0,M,,
Dez 27, 2016 1:57:37 AM gps.NMEA.utils.ChecksumUtilities getCRC
INFORMATION: Created CRC (51)  for Sentence: $GPRMC,015737,A,5336.1,S,1003.77,E,010.0,151.0,271216,,S
Dez 27, 2016 1:57:37 AM gps.NMEA.utils.ChecksumUtilities getCRC
INFORMATION: Created CRC (45)  for Sentence: $GPRMC,015737,A,5336.12,N,1003.86,E,010.1,23.0,271216,,S
Dez 27, 2016 1:57:37 AM gps.NMEA.utils.ChecksumUtilities getCRC
INFORMATION: Created CRC (45)  for Sentence: $GPRMC,015737,A,5336.12,N,1003.86,E,010.1,23.0,271216,,S
Dez 27, 2016 1:57:38 AM gps.NMEA.utils.ChecksumUtilities getCRC
INFORMATION: Created CRC (66)  for Sentence: $GPGGA,015738,5336.13,S,1003.96,E,8.0,10,2.4,14.6,M,0,M,,
Dez 27, 2016 1:57:38 AM gps.NMEA.utils.ChecksumUtilities getCRC
INFORMATION: Created CRC (66)  for Sentence: $GPGGA,015738,5336.13,S,1003.96,E,8.0,10,2.4,14.6,M,0,M,,
Dez 27, 2016 1:57:38 AM gps.NMEA.utils.ChecksumUtilities getCRC
INFORMATION: Created CRC (66)  for Sentence: $GPGGA,015738,5336.13,S,1003.96,E,8.0,10,2.4,14.6,M,0,M,,
Dez 27, 2016 1:57:39 AM gps.NMEA.utils.ChecksumUtilities getCRC
INFORMATION: Created CRC (63)  for Sentence: $GPRMC,015739,A,5336.16,S,1003.99,E,010.0,186.0,271216,,S
Dez 27, 2016 1:57:39 AM gps.NMEA.utils.ChecksumUtilities getCRC
INFORMATION: Created CRC (7A)  for Sentence: $GPGGA,015739,5336.23,S,1004.05,W,8.0,00,2.5,14.7,M,0,M,,
Dez 27, 2016 1:57:39 AM gps.NMEA.utils.ChecksumUtilities getCRC
INFORMATION: Created CRC (7A)  for Sentence: $GPGGA,015739,5336.23,S,1004.05,W,8.0,00,2.5,14.7,M,0,M,,
Dez 27, 2016 1:57:39 AM gps.NMEA.utils.ChecksumUtilities getCRC
INFORMATION: Created CRC (7A)  for Sentence: $GPGGA,015739,5336.23,S,1004.05,W,8.0,00,2.5,14.7,M,0,M,,
Dez 27, 2016 1:57:39 AM gps.NMEA.utils.ChecksumUtilities getCRC
INFORMATION: Created CRC (7C)  for Sentence: $GPRMC,015739,A,5336.23,S,1004.05,W,010.1,227.0,271216,,S
Dez 27, 2016 1:57:39 AM gps.NMEA.utils.ChecksumUtilities getCRC
INFORMATION: Created CRC (7C)  for Sentence: $GPRMC,015739,A,5336.23,S,1004.05,W,010.1,227.0,271216,,S
Dez 27, 2016 1:57:40 AM gps.NMEA.utils.ChecksumUtilities getCRC
INFORMATION: Created CRC (63)  for Sentence: $GPGGA,015740,5336.28,S,1004.34,E,8.0,08,2.5,14.3,M,0,M,,
Dez 27, 2016 1:57:40 AM gps.NMEA.utils.ChecksumUtilities getCRC
INFORMATION: Created CRC (63)  for Sentence: $GPGGA,015740,5336.28,S,1004.34,E,8.0,08,2.5,14.3,M,0,M,,
Dez 27, 2016 1:57:40 AM gps.NMEA.utils.ChecksumUtilities getCRC
INFORMATION: Created CRC (63)  for Sentence: $GPGGA,015740,5336.28,S,1004.34,E,8.0,08,2.5,14.3,M,0,M,,
Dez 27, 2016 1:57:40 AM gps.NMEA.utils.ChecksumUtilities getCRC
INFORMATION: Created CRC (69)  for Sentence: $GPRMC,015740,A,5336.28,S,1004.34,E,010.2,163.0,271216,,S
Dez 27, 2016 1:57:41 AM gps.NMEA.utils.ChecksumUtilities getCRC
INFORMATION: Created CRC (69)  for Sentence: $GPGGA,015741,5336.44,S,1004.49,E,8.0,00,2.6,14.3,M,0,M,,
Dez 27, 2016 1:57:41 AM gps.NMEA.utils.ChecksumUtilities getCRC
INFORMATION: Created CRC (69)  for Sentence: $GPGGA,015741,5336.44,S,1004.49,E,8.0,00,2.6,14.3,M,0,M,,
Dez 27, 2016 1:57:41 AM gps.NMEA.utils.ChecksumUtilities getCRC
INFORMATION: Created CRC (69)  for Sentence: $GPGGA,015741,5336.44,S,1004.49,E,8.0,00,2.6,14.3,M,0,M,,
Dez 27, 2016 1:57:41 AM gps.NMEA.utils.ChecksumUtilities getCRC
INFORMATION: Created CRC (6D)  for Sentence: $GPRMC,015741,A,5336.44,S,1004.49,E,010.1,165.0,271216,,S
Dez 27, 2016 1:57:41 AM gps.NMEA.utils.ChecksumUtilities getCRC
INFORMATION: Created CRC (6D)  for Sentence: $GPRMC,015741,A,5336.44,S,1004.49,E,010.1,165.0,271216,,S
Dez 27, 2016 1:57:41 AM gps.NMEA.utils.ChecksumUtilities getCRC
INFORMATION: Created CRC (6D)  for Sentence: $GPRMC,015741,A,5336.44,S,1004.49,E,010.1,165.0,271216,,S
Dez 27, 2016 1:57:42 AM gps.NMEA.utils.ChecksumUtilities getCRC
INFORMATION: Created CRC (56)  for Sentence: $GPGGA,015742,5336.53,S,1004.7,E,8.0,11,2.6,14.3,M,0,M,,
Dez 27, 2016 1:57:42 AM gps.NMEA.utils.ChecksumUtilities getCRC
INFORMATION: Created CRC (56)  for Sentence: $GPGGA,015742,5336.53,S,1004.7,E,8.0,11,2.6,14.3,M,0,M,,
Dez 27, 2016 1:57:42 AM gps.NMEA.utils.ChecksumUtilities getCRC
INFORMATION: Created CRC (56)  for Sentence: $GPGGA,015742,5336.53,S,1004.7,E,8.0,11,2.6,14.3,M,0,M,,
Dez 27, 2016 1:57:43 AM gps.NMEA.utils.ChecksumUtilities getCRC
INFORMATION: Created CRC (63)  for Sentence: $GPRMC,015743,A,5336.65,S,1004.77,E,010.1,176.0,271216,,S
Dez 27, 2016 1:57:43 AM gps.NMEA.utils.ChecksumUtilities getCRC
INFORMATION: Created CRC (63)  for Sentence: $GPRMC,015743,A,5336.65,S,1004.77,E,010.1,176.0,271216,,S
Dez 27, 2016 1:57:43 AM gps.NMEA.utils.ChecksumUtilities getCRC
INFORMATION: Created CRC (5B)  for Sentence: $GPGGA,015743,5336.74,S,1004.9,E,8.0,06,2.6,14.2,M,0,M,,
Dez 27, 2016 1:57:43 AM gps.NMEA.utils.ChecksumUtilities getCRC
INFORMATION: Created CRC (5B)  for Sentence: $GPGGA,015743,5336.74,S,1004.9,E,8.0,06,2.6,14.2,M,0,M,,
Dez 27, 2016 1:57:43 AM gps.NMEA.utils.ChecksumUtilities getCRC
INFORMATION: Created CRC (5B)  for Sentence: $GPGGA,015743,5336.74,S,1004.9,E,8.0,06,2.6,14.2,M,0,M,,
Dez 27, 2016 1:57:43 AM gps.NMEA.utils.ChecksumUtilities getCRC
INFORMATION: Created CRC (5B)  for Sentence: $GPRMC,015743,A,5336.74,S,1004.9,E,010.0,132.0,271216,,S
Dez 27, 2016 1:57:44 AM gps.NMEA.utils.ChecksumUtilities getCRC
INFORMATION: Created CRC (78)  for Sentence: $GPGGA,015744,5336.84,N,1005.06,E,8.0,04,2.8,14.6,M,0,M,,
Dez 27, 2016 1:57:44 AM gps.NMEA.utils.ChecksumUtilities getCRC
INFORMATION: Created CRC (78)  for Sentence: $GPGGA,015744,5336.84,N,1005.06,E,8.0,04,2.8,14.6,M,0,M,,
Dez 27, 2016 1:57:44 AM gps.NMEA.utils.ChecksumUtilities getCRC
INFORMATION: Created CRC (78)  for Sentence: $GPGGA,015744,5336.84,N,1005.06,E,8.0,04,2.8,14.6,M,0,M,,
Dez 27, 2016 1:57:44 AM gps.NMEA.utils.ChecksumUtilities getCRC
INFORMATION: Created CRC (45)  for Sentence: $GPRMC,015744,A,5336.84,N,1005.06,E,010.1,40.0,271216,,S
Dez 27, 2016 1:57:45 AM gps.NMEA.utils.ChecksumUtilities getCRC
INFORMATION: Created CRC (6A)  for Sentence: $GPRMC,015745,A,5336.88,S,1005.12,E,010.1,187.0,271216,,S
Dez 27, 2016 1:57:45 AM gps.NMEA.utils.ChecksumUtilities getCRC
INFORMATION: Created CRC (7C)  for Sentence: $GPGGA,015745,5336.92,S,1005.12,W,8.0,04,3.0,14.7,M,0,M,,
Dez 27, 2016 1:57:45 AM gps.NMEA.utils.ChecksumUtilities getCRC
INFORMATION: Created CRC (7C)  for Sentence: $GPGGA,015745,5336.92,S,1005.12,W,8.0,04,3.0,14.7,M,0,M,,
Dez 27, 2016 1:57:45 AM gps.NMEA.utils.ChecksumUtilities getCRC
INFORMATION: Created CRC (7C)  for Sentence: $GPGGA,015745,5336.92,S,1005.12,W,8.0,04,3.0,14.7,M,0,M,,
Dez 27, 2016 1:57:45 AM gps.NMEA.utils.ChecksumUtilities getCRC
INFORMATION: Created CRC (79)  for Sentence: $GPRMC,015745,A,5336.92,S,1005.12,W,010.2,263.0,271216,,S
Dez 27, 2016 1:57:45 AM gps.NMEA.utils.ChecksumUtilities getCRC
INFORMATION: Created CRC (79)  for Sentence: $GPRMC,015745,A,5336.92,S,1005.12,W,010.2,263.0,271216,,S
Dez 27, 2016 1:57:46 AM gps.NMEA.utils.ChecksumUtilities getCRC
INFORMATION: Created CRC (67)  for Sentence: $GPGGA,015746,5337.11,S,1005.35,E,8.0,02,3.1,14.5,M,0,M,,
Dez 27, 2016 1:57:46 AM gps.NMEA.utils.ChecksumUtilities getCRC
INFORMATION: Created CRC (67)  for Sentence: $GPGGA,015746,5337.11,S,1005.35,E,8.0,02,3.1,14.5,M,0,M,,
Dez 27, 2016 1:57:46 AM gps.NMEA.utils.ChecksumUtilities getCRC
INFORMATION: Created CRC (67)  for Sentence: $GPGGA,015746,5337.11,S,1005.35,E,8.0,02,3.1,14.5,M,0,M,,
Dez 27, 2016 1:57:47 AM gps.NMEA.utils.ChecksumUtilities getCRC
INFORMATION: Created CRC (66)  for Sentence: $GPRMC,015747,A,5337.12,S,1005.45,E,010.0,122.0,271216,,S
Dez 27, 2016 1:57:47 AM gps.NMEA.utils.ChecksumUtilities getCRC
INFORMATION: Created CRC (66)  for Sentence: $GPRMC,015747,A,5337.12,S,1005.45,E,010.0,122.0,271216,,S
Dez 27, 2016 1:57:47 AM gps.NMEA.utils.ChecksumUtilities getCRC
INFORMATION: Created CRC (72)  for Sentence: $GPGGA,015747,5337.16,N,1005.51,E,8.0,11,3.2,14.8,M,0,M,,
Dez 27, 2016 1:57:47 AM gps.NMEA.utils.ChecksumUtilities getCRC
INFORMATION: Created CRC (72)  for Sentence: $GPGGA,015747,5337.16,N,1005.51,E,8.0,11,3.2,14.8,M,0,M,,
Dez 27, 2016 1:57:47 AM gps.NMEA.utils.ChecksumUtilities getCRC
INFORMATION: Created CRC (72)  for Sentence: $GPGGA,015747,5337.16,N,1005.51,E,8.0,11,3.2,14.8,M,0,M,,
Dez 27, 2016 1:57:47 AM gps.NMEA.utils.ChecksumUtilities getCRC
INFORMATION: Created CRC (4A)  for Sentence: $GPRMC,015747,A,5337.16,N,1005.51,E,010.2,65.0,271216,,S
Dez 27, 2016 1:57:48 AM gps.NMEA.utils.ChecksumUtilities getCRC
INFORMATION: Created CRC (43)  for Sentence: $GPRMC,015748,A,5337.28,N,1005.65,E,010.1,95.0,271216,,S
Dez 27, 2016 1:57:48 AM gps.NMEA.utils.ChecksumUtilities getCRC
INFORMATION: Created CRC (42)  for Sentence: $GPGGA,015748,5337.4,N,1005.69,E,8.0,08,3.1,14.4,M,0,M,,
Dez 27, 2016 1:57:48 AM gps.NMEA.utils.ChecksumUtilities getCRC
INFORMATION: Created CRC (42)  for Sentence: $GPGGA,015748,5337.4,N,1005.69,E,8.0,08,3.1,14.4,M,0,M,,
Dez 27, 2016 1:57:48 AM gps.NMEA.utils.ChecksumUtilities getCRC
INFORMATION: Created CRC (42)  for Sentence: $GPGGA,015748,5337.4,N,1005.69,E,8.0,08,3.1,14.4,M,0,M,,
Dez 27, 2016 1:57:49 AM gps.NMEA.utils.ChecksumUtilities getCRC
INFORMATION: Created CRC (7B)  for Sentence: $GPRMC,015749,A,5337.42,N,1005.8,E,010.0,65.0,271216,,S
Dez 27, 2016 1:57:49 AM gps.NMEA.utils.ChecksumUtilities getCRC
INFORMATION: Created CRC (68)  for Sentence: $GPGGA,015749,5337.49,N,1005.89,W,8.0,05,3.3,14.5,M,0,M,,
Dez 27, 2016 1:57:49 AM gps.NMEA.utils.ChecksumUtilities getCRC
INFORMATION: Created CRC (68)  for Sentence: $GPGGA,015749,5337.49,N,1005.89,W,8.0,05,3.3,14.5,M,0,M,,
Dez 27, 2016 1:57:49 AM gps.NMEA.utils.ChecksumUtilities getCRC
INFORMATION: Created CRC (68)  for Sentence: $GPGGA,015749,5337.49,N,1005.89,W,8.0,05,3.3,14.5,M,0,M,,
Dez 27, 2016 1:57:49 AM gps.NMEA.utils.ChecksumUtilities getCRC
INFORMATION: Created CRC (6B)  for Sentence: $GPRMC,015749,A,5337.49,N,1005.89,W,010.1,354.0,271216,,S
Dez 27, 2016 1:57:49 AM gps.NMEA.utils.ChecksumUtilities getCRC
INFORMATION: Created CRC (6B)  for Sentence: $GPRMC,015749,A,5337.49,N,1005.89,W,010.1,354.0,271216,,S
Dez 27, 2016 1:57:50 AM gps.NMEA.utils.ChecksumUtilities getCRC
INFORMATION: Created CRC (72)  for Sentence: $GPGGA,015750,5337.67,S,1006.14,W,8.0,04,3.4,14.7,M,0,M,,
Dez 27, 2016 1:57:50 AM gps.NMEA.utils.ChecksumUtilities getCRC
INFORMATION: Created CRC (72)  for Sentence: $GPGGA,015750,5337.67,S,1006.14,W,8.0,04,3.4,14.7,M,0,M,,
Dez 27, 2016 1:57:50 AM gps.NMEA.utils.ChecksumUtilities getCRC
INFORMATION: Created CRC (72)  for Sentence: $GPGGA,015750,5337.67,S,1006.14,W,8.0,04,3.4,14.7,M,0,M,,
Dez 27, 2016 1:57:50 AM gps.NMEA.utils.ChecksumUtilities getCRC
INFORMATION: Created CRC (63)  for Sentence: $GPRMC,015750,A,5337.76,N,1006.18,W,010.2,336.0,271216,,S
Dez 27, 2016 1:57:50 AM gps.NMEA.utils.ChecksumUtilities getCRC
INFORMATION: Created CRC (63)  for Sentence: $GPRMC,015750,A,5337.76,N,1006.18,W,010.2,336.0,271216,,S
Dez 27, 2016 1:57:51 AM gps.NMEA.utils.ChecksumUtilities getCRC
INFORMATION: Created CRC (4A)  for Sentence: $GPGGA,015751,5337.81,N,1006.2,E,8.0,09,3.2,14.5,M,0,M,,
Dez 27, 2016 1:57:51 AM gps.NMEA.utils.ChecksumUtilities getCRC
INFORMATION: Created CRC (4A)  for Sentence: $GPGGA,015751,5337.81,N,1006.2,E,8.0,09,3.2,14.5,M,0,M,,
Dez 27, 2016 1:57:51 AM gps.NMEA.utils.ChecksumUtilities getCRC
INFORMATION: Created CRC (4A)  for Sentence: $GPGGA,015751,5337.81,N,1006.2,E,8.0,09,3.2,14.5,M,0,M,,
Dez 27, 2016 1:57:51 AM gps.NMEA.utils.ChecksumUtilities getCRC
INFORMATION: Created CRC (71)  for Sentence: $GPRMC,015751,A,5337.81,N,1006.2,E,010.1,34.0,271216,,S
Dez 27, 2016 1:57:52 AM gps.NMEA.utils.ChecksumUtilities getCRC
INFORMATION: Created CRC (60)  for Sentence: $GPRMC,015752,A,5337.81,N,1006.23,W,010.1,325.0,271216,,S
Dez 27, 2016 1:57:52 AM gps.NMEA.utils.ChecksumUtilities getCRC
INFORMATION: Created CRC (7B)  for Sentence: $GPGGA,015752,5337.87,S,1006.31,W,8.0,07,3.4,14.6,M,0,M,,
Dez 27, 2016 1:57:52 AM gps.NMEA.utils.ChecksumUtilities getCRC
INFORMATION: Created CRC (7B)  for Sentence: $GPGGA,015752,5337.87,S,1006.31,W,8.0,07,3.4,14.6,M,0,M,,
Dez 27, 2016 1:57:52 AM gps.NMEA.utils.ChecksumUtilities getCRC
INFORMATION: Created CRC (7B)  for Sentence: $GPGGA,015752,5337.87,S,1006.31,W,8.0,07,3.4,14.6,M,0,M,,
Dez 27, 2016 1:57:52 AM gps.NMEA.utils.ChecksumUtilities getCRC
INFORMATION: Created CRC (70)  for Sentence: $GPRMC,015752,A,5338.02,S,1006.44,W,010.2,285.0,271216,,S
Dez 27, 2016 1:57:53 AM gps.NMEA.utils.ChecksumUtilities getCRC
INFORMATION: Created CRC (79)  for Sentence: $GPGGA,015753,5338.03,S,1006.56,W,8.0,07,3.2,15.0,M,0,M,,
Dez 27, 2016 1:57:53 AM gps.NMEA.utils.ChecksumUtilities getCRC
INFORMATION: Created CRC (79)  for Sentence: $GPGGA,015753,5338.03,S,1006.56,W,8.0,07,3.2,15.0,M,0,M,,
Dez 27, 2016 1:57:53 AM gps.NMEA.utils.ChecksumUtilities getCRC
INFORMATION: Created CRC (79)  for Sentence: $GPGGA,015753,5338.03,S,1006.56,W,8.0,07,3.2,15.0,M,0,M,,
Dez 27, 2016 1:57:53 AM gps.NMEA.utils.ChecksumUtilities getCRC
INFORMATION: Created CRC (71)  for Sentence: $GPRMC,015753,A,5338.03,S,1006.56,W,010.1,248.0,271216,,S
Dez 27, 2016 1:57:53 AM gps.NMEA.utils.ChecksumUtilities getCRC
INFORMATION: Created CRC (71)  for Sentence: $GPRMC,015753,A,5338.03,S,1006.56,W,010.1,248.0,271216,,S
Dez 27, 2016 1:57:54 AM gps.NMEA.utils.ChecksumUtilities getCRC
INFORMATION: Created CRC (79)  for Sentence: $GPGGA,015754,5338.22,S,1006.66,W,8.0,01,3.3,15.0,M,0,M,,
Dez 27, 2016 1:57:54 AM gps.NMEA.utils.ChecksumUtilities getCRC
INFORMATION: Created CRC (79)  for Sentence: $GPGGA,015754,5338.22,S,1006.66,W,8.0,01,3.3,15.0,M,0,M,,
Dez 27, 2016 1:57:54 AM gps.NMEA.utils.ChecksumUtilities getCRC
INFORMATION: Created CRC (79)  for Sentence: $GPGGA,015754,5338.22,S,1006.66,W,8.0,01,3.3,15.0,M,0,M,,
Dez 27, 2016 1:57:54 AM gps.NMEA.utils.ChecksumUtilities getCRC
INFORMATION: Created CRC (73)  for Sentence: $GPRMC,015754,A,5338.22,S,1006.66,W,010.1,281.0,271216,,S
Dez 27, 2016 1:57:54 AM gps.NMEA.utils.ChecksumUtilities getCRC
INFORMATION: Created CRC (73)  for Sentence: $GPRMC,015754,A,5338.22,S,1006.66,W,010.1,281.0,271216,,S
Dez 27, 2016 1:57:55 AM gps.NMEA.utils.ChecksumUtilities getCRC
INFORMATION: Created CRC (55)  for Sentence: $GPGGA,015755,5338.32,S,1006.8,E,8.0,02,3.4,15.2,M,0,M,,
Dez 27, 2016 1:57:55 AM gps.NMEA.utils.ChecksumUtilities getCRC
INFORMATION: Created CRC (55)  for Sentence: $GPGGA,015755,5338.32,S,1006.8,E,8.0,02,3.4,15.2,M,0,M,,
Dez 27, 2016 1:57:55 AM gps.NMEA.utils.ChecksumUtilities getCRC
INFORMATION: Created CRC (55)  for Sentence: $GPGGA,015755,5338.32,S,1006.8,E,8.0,02,3.4,15.2,M,0,M,,
Dez 27, 2016 1:57:55 AM gps.NMEA.utils.ChecksumUtilities getCRC
INFORMATION: Created CRC (59)  for Sentence: $GPRMC,015755,A,5338.32,S,1006.8,E,010.1,128.0,271216,,S
Dez 27, 2016 1:57:56 AM gps.NMEA.utils.ChecksumUtilities getCRC
INFORMATION: Created CRC (4B)  for Sentence: $GPRMC,015756,A,5338.41,N,1006.81,E,010.1,20.0,271216,,S
Dez 27, 2016 1:57:56 AM gps.NMEA.utils.ChecksumUtilities getCRC
INFORMATION: Created CRC (42)  for Sentence: $GPGGA,015756,5338.45,N,1006.9,E,8.0,01,3.5,14.9,M,0,M,,
Dez 27, 2016 1:57:56 AM gps.NMEA.utils.ChecksumUtilities getCRC
INFORMATION: Created CRC (42)  for Sentence: $GPGGA,015756,5338.45,N,1006.9,E,8.0,01,3.5,14.9,M,0,M,,
Dez 27, 2016 1:57:56 AM gps.NMEA.utils.ChecksumUtilities getCRC
INFORMATION: Created CRC (42)  for Sentence: $GPGGA,015756,5338.45,N,1006.9,E,8.0,01,3.5,14.9,M,0,M,,
Dez 27, 2016 1:57:56 AM gps.NMEA.utils.ChecksumUtilities getCRC
INFORMATION: Created CRC (4D)  for Sentence: $GPRMC,015756,A,5338.45,N,1006.9,E,010.2,3.0,271216,,S
Dez 27, 2016 1:57:57 AM gps.NMEA.utils.ChecksumUtilities getCRC
INFORMATION: Created CRC (62)  for Sentence: $GPRMC,015757,A,5338.5,N,1006.9,W,010.1,329.0,271216,,S
Dez 27, 2016 1:57:57 AM gps.NMEA.utils.ChecksumUtilities getCRC
INFORMATION: Created CRC (63)  for Sentence: $GPGGA,015757,5338.54,N,1006.94,W,8.0,05,3.6,14.8,M,0,M,,
Dez 27, 2016 1:57:57 AM gps.NMEA.utils.ChecksumUtilities getCRC
INFORMATION: Created CRC (63)  for Sentence: $GPGGA,015757,5338.54,N,1006.94,W,8.0,05,3.6,14.8,M,0,M,,
Dez 27, 2016 1:57:57 AM gps.NMEA.utils.ChecksumUtilities getCRC
INFORMATION: Created CRC (63)  for Sentence: $GPGGA,015757,5338.54,N,1006.94,W,8.0,05,3.6,14.8,M,0,M,,
Dez 27, 2016 1:57:57 AM gps.NMEA.utils.ChecksumUtilities getCRC
INFORMATION: Created CRC (6F)  for Sentence: $GPRMC,015757,A,5338.54,N,1006.94,W,010.0,361.0,271216,,S
Dez 27, 2016 1:57:58 AM gps.NMEA.utils.ChecksumUtilities getCRC
INFORMATION: Created CRC (4C)  for Sentence: $GPGGA,015758,5338.59,S,1007.0,W,8.0,02,3.6,15.2,M,0,M,,
Dez 27, 2016 1:57:58 AM gps.NMEA.utils.ChecksumUtilities getCRC
INFORMATION: Created CRC (4C)  for Sentence: $GPGGA,015758,5338.59,S,1007.0,W,8.0,02,3.6,15.2,M,0,M,,
Dez 27, 2016 1:57:58 AM gps.NMEA.utils.ChecksumUtilities getCRC
INFORMATION: Created CRC (4C)  for Sentence: $GPGGA,015758,5338.59,S,1007.0,W,8.0,02,3.6,15.2,M,0,M,,
Dez 27, 2016 1:57:58 AM gps.NMEA.utils.ChecksumUtilities getCRC
INFORMATION: Created CRC (4A)  for Sentence: $GPRMC,015758,A,5338.59,S,1007.0,W,010.1,245.0,271216,,S
Dez 27, 2016 1:57:58 AM gps.NMEA.utils.ChecksumUtilities getCRC
INFORMATION: Created CRC (4A)  for Sentence: $GPRMC,015758,A,5338.59,S,1007.0,W,010.1,245.0,271216,,S
Dez 27, 2016 1:57:59 AM gps.NMEA.utils.ChecksumUtilities getCRC
INFORMATION: Created CRC (4C)  for Sentence: $GPRMC,015759,A,5338.66,S,1007.0,W,010.1,239.0,271216,,S
Dez 27, 2016 1:57:59 AM gps.NMEA.utils.ChecksumUtilities getCRC
INFORMATION: Created CRC (61)  for Sentence: $GPGGA,015759,5338.79,N,1007.13,W,8.0,01,3.6,15.0,M,0,M,,
Dez 27, 2016 1:57:59 AM gps.NMEA.utils.ChecksumUtilities getCRC
INFORMATION: Created CRC (61)  for Sentence: $GPGGA,015759,5338.79,N,1007.13,W,8.0,01,3.6,15.0,M,0,M,,
Dez 27, 2016 1:57:59 AM gps.NMEA.utils.ChecksumUtilities getCRC
INFORMATION: Created CRC (61)  for Sentence: $GPGGA,015759,5338.79,N,1007.13,W,8.0,01,3.6,15.0,M,0,M,,
Dez 27, 2016 1:57:59 AM gps.NMEA.utils.ChecksumUtilities getCRC
INFORMATION: Created CRC (7B)  for Sentence: $GPRMC,015759,A,5338.8,N,1007.21,E,010.0,28.0,271216,,S
Dez 27, 2016 1:58:00 AM gps.NMEA.utils.ChecksumUtilities getCRC
INFORMATION: Created CRC (7B)  for Sentence: $GPGGA,015800,5338.92,N,1007.28,E,8.0,02,3.5,14.7,M,0,M,,
Dez 27, 2016 1:58:00 AM gps.NMEA.utils.ChecksumUtilities getCRC
INFORMATION: Created CRC (7B)  for Sentence: $GPGGA,015800,5338.92,N,1007.28,E,8.0,02,3.5,14.7,M,0,M,,
Dez 27, 2016 1:58:00 AM gps.NMEA.utils.ChecksumUtilities getCRC
INFORMATION: Created CRC (7B)  for Sentence: $GPGGA,015800,5338.92,N,1007.28,E,8.0,02,3.5,14.7,M,0,M,,
Dez 27, 2016 1:58:00 AM gps.NMEA.utils.ChecksumUtilities getCRC
INFORMATION: Created CRC (4F)  for Sentence: $GPRMC,015800,A,5338.92,N,1007.28,E,010.1,42.0,271216,,S
Dez 27, 2016 1:58:01 AM gps.NMEA.utils.ChecksumUtilities getCRC
INFORMATION: Created CRC (41)  for Sentence: $GPRMC,015801,A,5338.94,N,1007.34,E,010.2,32.0,271216,,S
Dez 27, 2016 1:58:01 AM gps.NMEA.utils.ChecksumUtilities getCRC
INFORMATION: Created CRC (41)  for Sentence: $GPRMC,015801,A,5338.94,N,1007.34,E,010.2,32.0,271216,,S
Dez 27, 2016 1:58:01 AM gps.NMEA.utils.ChecksumUtilities getCRC
INFORMATION: Created CRC (77)  for Sentence: $GPGGA,015801,5338.95,N,1007.42,E,8.0,05,3.5,14.6,M,0,M,,
Dez 27, 2016 1:58:01 AM gps.NMEA.utils.ChecksumUtilities getCRC
INFORMATION: Created CRC (77)  for Sentence: $GPGGA,015801,5338.95,N,1007.42,E,8.0,05,3.5,14.6,M,0,M,,
Dez 27, 2016 1:58:01 AM gps.NMEA.utils.ChecksumUtilities getCRC
INFORMATION: Created CRC (77)  for Sentence: $GPGGA,015801,5338.95,N,1007.42,E,8.0,05,3.5,14.6,M,0,M,,
Dez 27, 2016 1:58:02 AM gps.NMEA.utils.ChecksumUtilities getCRC
INFORMATION: Created CRC (7B)  for Sentence: $GPGGA,015802,5339.07,N,1007.58,E,8.0,04,3.4,14.8,M,0,M,,
Dez 27, 2016 1:58:02 AM gps.NMEA.utils.ChecksumUtilities getCRC
INFORMATION: Created CRC (7B)  for Sentence: $GPGGA,015802,5339.07,N,1007.58,E,8.0,04,3.4,14.8,M,0,M,,
Dez 27, 2016 1:58:02 AM gps.NMEA.utils.ChecksumUtilities getCRC
INFORMATION: Created CRC (7B)  for Sentence: $GPGGA,015802,5339.07,N,1007.58,E,8.0,04,3.4,14.8,M,0,M,,
Dez 27, 2016 1:58:02 AM gps.NMEA.utils.ChecksumUtilities getCRC
INFORMATION: Created CRC (48)  for Sentence: $GPRMC,015802,A,5339.07,N,1007.58,E,010.2,28.0,271216,,S
Dez 27, 2016 1:58:02 AM gps.NMEA.utils.ChecksumUtilities getCRC
INFORMATION: Created CRC (48)  for Sentence: $GPRMC,015802,A,5339.07,N,1007.58,E,010.2,28.0,271216,,S
Dez 27, 2016 1:58:03 AM gps.NMEA.utils.ChecksumUtilities getCRC
INFORMATION: Created CRC (5F)  for Sentence: $GPRMC,015803,A,5339.1,N,1007.66,W,010.1,363.0,271216,,S
Dez 27, 2016 1:58:03 AM gps.NMEA.utils.ChecksumUtilities getCRC
INFORMATION: Created CRC (7C)  for Sentence: $GPGGA,015803,5339.13,S,1007.68,W,8.0,05,3.3,15.0,M,0,M,,
Dez 27, 2016 1:58:03 AM gps.NMEA.utils.ChecksumUtilities getCRC
INFORMATION: Created CRC (7C)  for Sentence: $GPGGA,015803,5339.13,S,1007.68,W,8.0,05,3.3,15.0,M,0,M,,
Dez 27, 2016 1:58:03 AM gps.NMEA.utils.ChecksumUtilities getCRC
INFORMATION: Created CRC (7C)  for Sentence: $GPGGA,015803,5339.13,S,1007.68,W,8.0,05,3.3,15.0,M,0,M,,
Dez 27, 2016 1:58:03 AM gps.NMEA.utils.ChecksumUtilities getCRC
INFORMATION: Created CRC (74)  for Sentence: $GPRMC,015803,A,5339.13,S,1007.68,W,010.1,287.0,271216,,S
Dez 27, 2016 1:58:04 AM gps.NMEA.utils.ChecksumUtilities getCRC
INFORMATION: Created CRC (7E)  for Sentence: $GPRMC,015804,A,5339.27,S,1007.82,W,010.2,202.0,271216,,S
Dez 27, 2016 1:58:04 AM gps.NMEA.utils.ChecksumUtilities getCRC
INFORMATION: Created CRC (6D)  for Sentence: $GPGGA,015804,5339.28,S,1007.96,E,8.0,09,3.2,15.0,M,0,M,,
Dez 27, 2016 1:58:04 AM gps.NMEA.utils.ChecksumUtilities getCRC
INFORMATION: Created CRC (6D)  for Sentence: $GPGGA,015804,5339.28,S,1007.96,E,8.0,09,3.2,15.0,M,0,M,,
Dez 27, 2016 1:58:04 AM gps.NMEA.utils.ChecksumUtilities getCRC
INFORMATION: Created CRC (6D)  for Sentence: $GPGGA,015804,5339.28,S,1007.96,E,8.0,09,3.2,15.0,M,0,M,,
Dez 27, 2016 1:58:05 AM gps.NMEA.utils.ChecksumUtilities getCRC
INFORMATION: Created CRC (7B)  for Sentence: $GPRMC,015805,A,5339.29,N,1008.0,E,010.0,46.0,271216,,S
Dez 27, 2016 1:58:05 AM gps.NMEA.utils.ChecksumUtilities getCRC
INFORMATION: Created CRC (7B)  for Sentence: $GPRMC,015805,A,5339.29,N,1008.0,E,010.0,46.0,271216,,S
Dez 27, 2016 1:58:05 AM gps.NMEA.utils.ChecksumUtilities getCRC
INFORMATION: Created CRC (6D)  for Sentence: $GPGGA,015805,5339.44,S,1008.06,E,8.0,02,3.2,14.7,M,0,M,,
Dez 27, 2016 1:58:05 AM gps.NMEA.utils.ChecksumUtilities getCRC
INFORMATION: Created CRC (6D)  for Sentence: $GPGGA,015805,5339.44,S,1008.06,E,8.0,02,3.2,14.7,M,0,M,,
Dez 27, 2016 1:58:05 AM gps.NMEA.utils.ChecksumUtilities getCRC
INFORMATION: Created CRC (6D)  for Sentence: $GPGGA,015805,5339.44,S,1008.06,E,8.0,02,3.2,14.7,M,0,M,,
Dez 27, 2016 1:58:06 AM gps.NMEA.utils.ChecksumUtilities getCRC
INFORMATION: Created CRC (6D)  for Sentence: $GPRMC,015806,A,5339.53,S,1008.12,E,010.1,126.0,271216,,S
Dez 27, 2016 1:58:06 AM gps.NMEA.utils.ChecksumUtilities getCRC
INFORMATION: Created CRC (69)  for Sentence: $GPGGA,015806,5339.62,S,1008.21,E,8.0,04,3.2,14.7,M,0,M,,
Dez 27, 2016 1:58:06 AM gps.NMEA.utils.ChecksumUtilities getCRC
INFORMATION: Created CRC (69)  for Sentence: $GPGGA,015806,5339.62,S,1008.21,E,8.0,04,3.2,14.7,M,0,M,,
Dez 27, 2016 1:58:06 AM gps.NMEA.utils.ChecksumUtilities getCRC
INFORMATION: Created CRC (69)  for Sentence: $GPGGA,015806,5339.62,S,1008.21,E,8.0,04,3.2,14.7,M,0,M,,
Dez 27, 2016 1:58:06 AM gps.NMEA.utils.ChecksumUtilities getCRC
INFORMATION: Created CRC (6E)  for Sentence: $GPRMC,015806,A,5339.62,S,1008.21,E,010.2,117.0,271216,,S
Dez 27, 2016 1:58:07 AM gps.NMEA.utils.ChecksumUtilities getCRC
INFORMATION: Created CRC (70)  for Sentence: $GPRMC,015807,A,5339.71,N,1008.3,E,010.2,25.0,271216,,S
Dez 27, 2016 1:58:07 AM gps.NMEA.utils.ChecksumUtilities getCRC
INFORMATION: Created CRC (77)  for Sentence: $GPGGA,015807,5339.74,N,1008.36,E,8.0,03,3.2,14.3,M,0,M,,
Dez 27, 2016 1:58:07 AM gps.NMEA.utils.ChecksumUtilities getCRC
INFORMATION: Created CRC (77)  for Sentence: $GPGGA,015807,5339.74,N,1008.36,E,8.0,03,3.2,14.3,M,0,M,,
Dez 27, 2016 1:58:07 AM gps.NMEA.utils.ChecksumUtilities getCRC
INFORMATION: Created CRC (77)  for Sentence: $GPGGA,015807,5339.74,N,1008.36,E,8.0,03,3.2,14.3,M,0,M,,
Dez 27, 2016 1:58:07 AM gps.NMEA.utils.ChecksumUtilities getCRC
INFORMATION: Created CRC (46)  for Sentence: $GPRMC,015807,A,5339.74,N,1008.36,E,010.1,10.0,271216,,S
Dez 27, 2016 1:58:08 AM gps.NMEA.utils.ChecksumUtilities getCRC
INFORMATION: Created CRC (66)  for Sentence: $GPRMC,015808,A,5339.85,N,1008.46,W,010.1,360.0,271216,,S
Dez 27, 2016 1:58:08 AM gps.NMEA.utils.ChecksumUtilities getCRC
INFORMATION: Created CRC (55)  for Sentence: $GPGGA,015808,5339.95,N,1008.6,W,8.0,02,3.0,14.3,M,0,M,,
Dez 27, 2016 1:58:08 AM gps.NMEA.utils.ChecksumUtilities getCRC
INFORMATION: Created CRC (55)  for Sentence: $GPGGA,015808,5339.95,N,1008.6,W,8.0,02,3.0,14.3,M,0,M,,
Dez 27, 2016 1:58:08 AM gps.NMEA.utils.ChecksumUtilities getCRC
INFORMATION: Created CRC (55)  for Sentence: $GPGGA,015808,5339.95,N,1008.6,W,8.0,02,3.0,14.3,M,0,M,,
Dez 27, 2016 1:58:09 AM gps.NMEA.utils.ChecksumUtilities getCRC
INFORMATION: Created CRC (62)  for Sentence: $GPRMC,015809,A,5339.95,N,1008.72,W,010.1,341.0,271216,,S
Dez 27, 2016 1:58:09 AM gps.NMEA.utils.ChecksumUtilities getCRC
INFORMATION: Created CRC (62)  for Sentence: $GPRMC,015809,A,5339.95,N,1008.72,W,010.1,341.0,271216,,S
Dez 27, 2016 1:58:09 AM gps.NMEA.utils.ChecksumUtilities getCRC
INFORMATION: Created CRC (70)  for Sentence: $GPGGA,015809,5339.99,N,1008.72,E,8.0,09,3.2,14.3,M,0,M,,
Dez 27, 2016 1:58:09 AM gps.NMEA.utils.ChecksumUtilities getCRC
INFORMATION: Created CRC (70)  for Sentence: $GPGGA,015809,5339.99,N,1008.72,E,8.0,09,3.2,14.3,M,0,M,,
Dez 27, 2016 1:58:09 AM gps.NMEA.utils.ChecksumUtilities getCRC
INFORMATION: Created CRC (70)  for Sentence: $GPGGA,015809,5339.99,N,1008.72,E,8.0,09,3.2,14.3,M,0,M,,
Dez 27, 2016 1:58:10 AM gps.NMEA.utils.ChecksumUtilities getCRC
INFORMATION: Created CRC (7C)  for Sentence: $GPRMC,015810,A,5340.13,N,1008.72,E,010.2,1.0,271216,,S
Dez 27, 2016 1:58:10 AM gps.NMEA.utils.ChecksumUtilities getCRC
INFORMATION: Created CRC (7C)  for Sentence: $GPRMC,015810,A,5340.13,N,1008.72,E,010.2,1.0,271216,,S
Dez 27, 2016 1:58:10 AM gps.NMEA.utils.ChecksumUtilities getCRC
INFORMATION: Created CRC (7C)  for Sentence: $GPGGA,015810,5340.23,N,1008.72,E,8.0,01,3.2,14.0,M,0,M,,
Dez 27, 2016 1:58:10 AM gps.NMEA.utils.ChecksumUtilities getCRC
INFORMATION: Created CRC (7C)  for Sentence: $GPGGA,015810,5340.23,N,1008.72,E,8.0,01,3.2,14.0,M,0,M,,
Dez 27, 2016 1:58:10 AM gps.NMEA.utils.ChecksumUtilities getCRC
INFORMATION: Created CRC (7C)  for Sentence: $GPGGA,015810,5340.23,N,1008.72,E,8.0,01,3.2,14.0,M,0,M,,
Dez 27, 2016 1:58:10 AM gps.NMEA.utils.ChecksumUtilities getCRC
INFORMATION: Created CRC (64)  for Sentence: $GPRMC,015810,A,5340.33,N,1008.78,W,010.2,399.0,271216,,S
Dez 27, 2016 1:58:11 AM gps.NMEA.utils.ChecksumUtilities getCRC
INFORMATION: Created CRC (7D)  for Sentence: $GPGGA,015811,5340.33,S,1008.91,W,8.0,00,3.2,14.2,M,0,M,,
Dez 27, 2016 1:58:11 AM gps.NMEA.utils.ChecksumUtilities getCRC
INFORMATION: Created CRC (7D)  for Sentence: $GPGGA,015811,5340.33,S,1008.91,W,8.0,00,3.2,14.2,M,0,M,,
Dez 27, 2016 1:58:11 AM gps.NMEA.utils.ChecksumUtilities getCRC
INFORMATION: Created CRC (7D)  for Sentence: $GPGGA,015811,5340.33,S,1008.91,W,8.0,00,3.2,14.2,M,0,M,,
Dez 27, 2016 1:58:11 AM gps.NMEA.utils.ChecksumUtilities getCRC
INFORMATION: Created CRC (78)  for Sentence: $GPRMC,015811,A,5340.33,S,1008.91,W,010.2,242.0,271216,,S
Dez 27, 2016 1:58:11 AM gps.NMEA.utils.ChecksumUtilities getCRC
INFORMATION: Created CRC (72)  for Sentence: $GPRMC,015811,A,5340.37,S,1009.03,W,010.1,223.0,271216,,S
Dez 27, 2016 1:58:12 AM gps.NMEA.utils.ChecksumUtilities getCRC
INFORMATION: Created CRC (75)  for Sentence: $GPGGA,015812,5340.43,S,1009.03,W,8.0,06,3.2,14.2,M,0,M,,
Dez 27, 2016 1:58:12 AM gps.NMEA.utils.ChecksumUtilities getCRC
INFORMATION: Created CRC (75)  for Sentence: $GPGGA,015812,5340.43,S,1009.03,W,8.0,06,3.2,14.2,M,0,M,,
Dez 27, 2016 1:58:12 AM gps.NMEA.utils.ChecksumUtilities getCRC
INFORMATION: Created CRC (75)  for Sentence: $GPGGA,015812,5340.43,S,1009.03,W,8.0,06,3.2,14.2,M,0,M,,
Dez 27, 2016 1:58:12 AM gps.NMEA.utils.ChecksumUtilities getCRC
INFORMATION: Created CRC (72)  for Sentence: $GPRMC,015812,A,5340.55,S,1009.16,W,010.2,289.0,271216,,S
Dez 27, 2016 1:58:12 AM gps.NMEA.utils.ChecksumUtilities getCRC
INFORMATION: Created CRC (72)  for Sentence: $GPRMC,015812,A,5340.55,S,1009.16,W,010.2,289.0,271216,,S
Dez 27, 2016 1:58:13 AM gps.NMEA.utils.ChecksumUtilities getCRC
INFORMATION: Created CRC (65)  for Sentence: $GPGGA,015813,5340.64,S,1009.26,E,8.0,01,3.2,14.4,M,0,M,,
Dez 27, 2016 1:58:13 AM gps.NMEA.utils.ChecksumUtilities getCRC
INFORMATION: Created CRC (65)  for Sentence: $GPGGA,015813,5340.64,S,1009.26,E,8.0,01,3.2,14.4,M,0,M,,
Dez 27, 2016 1:58:13 AM gps.NMEA.utils.ChecksumUtilities getCRC
INFORMATION: Created CRC (65)  for Sentence: $GPGGA,015813,5340.64,S,1009.26,E,8.0,01,3.2,14.4,M,0,M,,
Dez 27, 2016 1:58:13 AM gps.NMEA.utils.ChecksumUtilities getCRC
INFORMATION: Created CRC (6E)  for Sentence: $GPRMC,015813,A,5340.64,S,1009.26,E,010.1,169.0,271216,,S
Dez 27, 2016 1:58:14 AM gps.NMEA.utils.ChecksumUtilities getCRC
INFORMATION: Created CRC (57)  for Sentence: $GPRMC,015814,A,5340.72,S,1009.3,E,010.1,154.0,271216,,S
Dez 27, 2016 1:58:14 AM gps.NMEA.utils.ChecksumUtilities getCRC
INFORMATION: Created CRC (6F)  for Sentence: $GPGGA,015814,5340.81,S,1009.42,E,8.0,10,3.4,14.6,M,0,M,,
Dez 27, 2016 1:58:14 AM gps.NMEA.utils.ChecksumUtilities getCRC
INFORMATION: Created CRC (6F)  for Sentence: $GPGGA,015814,5340.81,S,1009.42,E,8.0,10,3.4,14.6,M,0,M,,
Dez 27, 2016 1:58:14 AM gps.NMEA.utils.ChecksumUtilities getCRC
INFORMATION: Created CRC (6F)  for Sentence: $GPGGA,015814,5340.81,S,1009.42,E,8.0,10,3.4,14.6,M,0,M,,
Dez 27, 2016 1:58:14 AM gps.NMEA.utils.ChecksumUtilities getCRC
INFORMATION: Created CRC (68)  for Sentence: $GPRMC,015814,A,5340.81,S,1009.42,E,010.2,104.0,271216,,S
Dez 27, 2016 1:58:15 AM gps.NMEA.utils.ChecksumUtilities getCRC
INFORMATION: Created CRC (73)  for Sentence: $GPGGA,015815,5341.0,N,1009.5,E,8.0,09,3.4,14.5,M,0,M,,
Dez 27, 2016 1:58:15 AM gps.NMEA.utils.ChecksumUtilities getCRC
INFORMATION: Created CRC (73)  for Sentence: $GPGGA,015815,5341.0,N,1009.5,E,8.0,09,3.4,14.5,M,0,M,,
Dez 27, 2016 1:58:15 AM gps.NMEA.utils.ChecksumUtilities getCRC
INFORMATION: Created CRC (73)  for Sentence: $GPGGA,015815,5341.0,N,1009.5,E,8.0,09,3.4,14.5,M,0,M,,
Dez 27, 2016 1:58:15 AM gps.NMEA.utils.ChecksumUtilities getCRC
INFORMATION: Created CRC (42)  for Sentence: $GPRMC,015815,A,5341.0,N,1009.5,E,010.1,83.0,271216,,S
Dez 27, 2016 1:58:15 AM gps.NMEA.utils.ChecksumUtilities getCRC
INFORMATION: Created CRC (42)  for Sentence: $GPRMC,015815,A,5341.0,N,1009.5,E,010.1,83.0,271216,,S
Dez 27, 2016 1:58:16 AM gps.NMEA.utils.ChecksumUtilities getCRC
INFORMATION: Created CRC (6A)  for Sentence: $GPGGA,015816,5341.17,S,1009.68,E,8.0,10,3.4,14.7,M,0,M,,
Dez 27, 2016 1:58:16 AM gps.NMEA.utils.ChecksumUtilities getCRC
INFORMATION: Created CRC (6A)  for Sentence: $GPGGA,015816,5341.17,S,1009.68,E,8.0,10,3.4,14.7,M,0,M,,
Dez 27, 2016 1:58:16 AM gps.NMEA.utils.ChecksumUtilities getCRC
INFORMATION: Created CRC (6A)  for Sentence: $GPGGA,015816,5341.17,S,1009.68,E,8.0,10,3.4,14.7,M,0,M,,
Dez 27, 2016 1:58:16 AM gps.NMEA.utils.ChecksumUtilities getCRC
INFORMATION: Created CRC (6D)  for Sentence: $GPRMC,015816,A,5341.17,S,1009.68,E,010.2,136.0,271216,,S
Dez 27, 2016 1:58:16 AM gps.NMEA.utils.ChecksumUtilities getCRC
INFORMATION: Created CRC (6D)  for Sentence: $GPRMC,015816,A,5341.17,S,1009.68,E,010.2,136.0,271216,,S
Dez 27, 2016 1:58:17 AM gps.NMEA.utils.ChecksumUtilities getCRC
INFORMATION: Created CRC (69)  for Sentence: $GPGGA,015817,5341.32,S,1009.76,E,8.0,08,3.4,14.4,M,0,M,,
Dez 27, 2016 1:58:17 AM gps.NMEA.utils.ChecksumUtilities getCRC
INFORMATION: Created CRC (69)  for Sentence: $GPGGA,015817,5341.32,S,1009.76,E,8.0,08,3.4,14.4,M,0,M,,
Dez 27, 2016 1:58:17 AM gps.NMEA.utils.ChecksumUtilities getCRC
INFORMATION: Created CRC (69)  for Sentence: $GPGGA,015817,5341.32,S,1009.76,E,8.0,08,3.4,14.4,M,0,M,,
Dez 27, 2016 1:58:17 AM gps.NMEA.utils.ChecksumUtilities getCRC
INFORMATION: Created CRC (66)  for Sentence: $GPRMC,015817,A,5341.32,S,1009.76,E,010.1,137.0,271216,,S
Dez 27, 2016 1:58:18 AM gps.NMEA.utils.ChecksumUtilities getCRC
INFORMATION: Created CRC (6A)  for Sentence: $GPRMC,015818,A,5341.39,S,1009.91,E,010.2,124.0,271216,,S
Dez 27, 2016 1:58:18 AM gps.NMEA.utils.ChecksumUtilities getCRC
INFORMATION: Created CRC (76)  for Sentence: $GPGGA,015818,5341.48,N,1009.91,E,8.0,10,3.4,14.4,M,0,M,,
Dez 27, 2016 1:58:18 AM gps.NMEA.utils.ChecksumUtilities getCRC
INFORMATION: Created CRC (76)  for Sentence: $GPGGA,015818,5341.48,N,1009.91,E,8.0,10,3.4,14.4,M,0,M,,
Dez 27, 2016 1:58:18 AM gps.NMEA.utils.ChecksumUtilities getCRC
INFORMATION: Created CRC (76)  for Sentence: $GPGGA,015818,5341.48,N,1009.91,E,8.0,10,3.4,14.4,M,0,M,,
Dez 27, 2016 1:58:18 AM gps.NMEA.utils.ChecksumUtilities getCRC
INFORMATION: Created CRC (43)  for Sentence: $GPRMC,015818,A,5341.48,N,1009.91,E,010.3,40.0,271216,,S
Dez 27, 2016 1:58:19 AM gps.NMEA.utils.ChecksumUtilities getCRC
INFORMATION: Created CRC (67)  for Sentence: $GPGGA,015819,5341.62,S,1010.14,E,8.0,03,3.5,14.7,M,0,M,,
Dez 27, 2016 1:58:19 AM gps.NMEA.utils.ChecksumUtilities getCRC
INFORMATION: Created CRC (67)  for Sentence: $GPGGA,015819,5341.62,S,1010.14,E,8.0,03,3.5,14.7,M,0,M,,
Dez 27, 2016 1:58:19 AM gps.NMEA.utils.ChecksumUtilities getCRC
INFORMATION: Created CRC (67)  for Sentence: $GPGGA,015819,5341.62,S,1010.14,E,8.0,03,3.5,14.7,M,0,M,,
Dez 27, 2016 1:58:19 AM gps.NMEA.utils.ChecksumUtilities getCRC
INFORMATION: Created CRC (6B)  for Sentence: $GPRMC,015819,A,5341.62,S,1010.14,E,010.1,197.0,271216,,S
Dez 27, 2016 1:58:19 AM gps.NMEA.utils.ChecksumUtilities getCRC
INFORMATION: Created CRC (6B)  for Sentence: $GPRMC,015819,A,5341.62,S,1010.14,E,010.1,197.0,271216,,S
Dez 27, 2016 1:58:20 AM gps.NMEA.utils.ChecksumUtilities getCRC
INFORMATION: Created CRC (63)  for Sentence: $GPGGA,015820,5341.81,S,1010.31,E,8.0,04,3.6,14.7,M,0,M,,
Dez 27, 2016 1:58:20 AM gps.NMEA.utils.ChecksumUtilities getCRC
INFORMATION: Created CRC (63)  for Sentence: $GPGGA,015820,5341.81,S,1010.31,E,8.0,04,3.6,14.7,M,0,M,,
Dez 27, 2016 1:58:20 AM gps.NMEA.utils.ChecksumUtilities getCRC
INFORMATION: Created CRC (63)  for Sentence: $GPGGA,015820,5341.81,S,1010.31,E,8.0,04,3.6,14.7,M,0,M,,
Dez 27, 2016 1:58:20 AM gps.NMEA.utils.ChecksumUtilities getCRC
INFORMATION: Created CRC (6D)  for Sentence: $GPRMC,015820,A,5341.81,S,1010.31,E,010.1,119.0,271216,,S
Dez 27, 2016 1:58:20 AM gps.NMEA.utils.ChecksumUtilities getCRC
INFORMATION: Created CRC (6D)  for Sentence: $GPRMC,015820,A,5341.81,S,1010.31,E,010.1,119.0,271216,,S
Dez 27, 2016 1:58:21 AM gps.NMEA.utils.ChecksumUtilities getCRC
INFORMATION: Created CRC (7B)  for Sentence: $GPGGA,015821,5341.97,N,1010.52,E,8.0,00,3.7,14.4,M,0,M,,
Dez 27, 2016 1:58:21 AM gps.NMEA.utils.ChecksumUtilities getCRC
INFORMATION: Created CRC (7B)  for Sentence: $GPGGA,015821,5341.97,N,1010.52,E,8.0,00,3.7,14.4,M,0,M,,
Dez 27, 2016 1:58:21 AM gps.NMEA.utils.ChecksumUtilities getCRC
INFORMATION: Created CRC (7B)  for Sentence: $GPGGA,015821,5341.97,N,1010.52,E,8.0,00,3.7,14.4,M,0,M,,
Dez 27, 2016 1:58:21 AM gps.NMEA.utils.ChecksumUtilities getCRC
INFORMATION: Created CRC (4F)  for Sentence: $GPRMC,015821,A,5341.97,N,1010.52,E,010.2,60.0,271216,,S
Dez 27, 2016 1:58:22 AM gps.NMEA.utils.ChecksumUtilities getCRC
INFORMATION: Created CRC (6E)  for Sentence: $GPRMC,015822,A,5342.02,N,1010.61,W,010.1,309.0,271216,,S
Dez 27, 2016 1:58:22 AM gps.NMEA.utils.ChecksumUtilities getCRC
INFORMATION: Created CRC (54)  for Sentence: $GPGGA,015822,5342.1,N,1010.73,W,8.0,06,3.7,14.3,M,0,M,,
Dez 27, 2016 1:58:22 AM gps.NMEA.utils.ChecksumUtilities getCRC
INFORMATION: Created CRC (54)  for Sentence: $GPGGA,015822,5342.1,N,1010.73,W,8.0,06,3.7,14.3,M,0,M,,
Dez 27, 2016 1:58:22 AM gps.NMEA.utils.ChecksumUtilities getCRC
INFORMATION: Created CRC (54)  for Sentence: $GPGGA,015822,5342.1,N,1010.73,W,8.0,06,3.7,14.3,M,0,M,,
Dez 27, 2016 1:58:22 AM gps.NMEA.utils.ChecksumUtilities getCRC
INFORMATION: Created CRC (5D)  for Sentence: $GPRMC,015822,A,5342.1,N,1010.73,W,010.2,381.0,271216,,S
Dez 27, 2016 1:58:23 AM gps.NMEA.utils.ChecksumUtilities getCRC
INFORMATION: Created CRC (61)  for Sentence: $GPRMC,015823,A,5342.22,N,1010.75,W,010.1,366.0,271216,,S
Dez 27, 2016 1:58:23 AM gps.NMEA.utils.ChecksumUtilities getCRC
INFORMATION: Created CRC (7E)  for Sentence: $GPGGA,015823,5342.29,S,1010.84,W,8.0,00,3.7,14.1,M,0,M,,
Dez 27, 2016 1:58:23 AM gps.NMEA.utils.ChecksumUtilities getCRC
INFORMATION: Created CRC (7E)  for Sentence: $GPGGA,015823,5342.29,S,1010.84,W,8.0,00,3.7,14.1,M,0,M,,
Dez 27, 2016 1:58:23 AM gps.NMEA.utils.ChecksumUtilities getCRC
INFORMATION: Created CRC (7E)  for Sentence: $GPGGA,015823,5342.29,S,1010.84,W,8.0,00,3.7,14.1,M,0,M,,
Dez 27, 2016 1:58:23 AM gps.NMEA.utils.ChecksumUtilities getCRC
INFORMATION: Created CRC (7F)  for Sentence: $GPRMC,015823,A,5342.29,S,1010.84,W,010.1,225.0,271216,,S
Dez 27, 2016 1:58:24 AM gps.NMEA.utils.ChecksumUtilities getCRC
INFORMATION: Created CRC (64)  for Sentence: $GPGGA,015824,5342.44,S,1011.06,E,8.0,10,3.6,13.9,M,0,M,,
Dez 27, 2016 1:58:24 AM gps.NMEA.utils.ChecksumUtilities getCRC
INFORMATION: Created CRC (64)  for Sentence: $GPGGA,015824,5342.44,S,1011.06,E,8.0,10,3.6,13.9,M,0,M,,
Dez 27, 2016 1:58:24 AM gps.NMEA.utils.ChecksumUtilities getCRC
INFORMATION: Created CRC (64)  for Sentence: $GPGGA,015824,5342.44,S,1011.06,E,8.0,10,3.6,13.9,M,0,M,,
Dez 27, 2016 1:58:24 AM gps.NMEA.utils.ChecksumUtilities getCRC
INFORMATION: Created CRC (6F)  for Sentence: $GPRMC,015824,A,5342.44,S,1011.06,E,010.2,175.0,271216,,S
Dez 27, 2016 1:58:24 AM gps.NMEA.utils.ChecksumUtilities getCRC
INFORMATION: Created CRC (6F)  for Sentence: $GPRMC,015824,A,5342.44,S,1011.06,E,010.2,175.0,271216,,S
Dez 27, 2016 1:58:25 AM gps.NMEA.utils.ChecksumUtilities getCRC
INFORMATION: Created CRC (79)  for Sentence: $GPRMC,015825,A,5342.44,S,1011.13,W,010.1,247.0,271216,,S
Dez 27, 2016 1:58:25 AM gps.NMEA.utils.ChecksumUtilities getCRC
INFORMATION: Created CRC (68)  for Sentence: $GPGGA,015825,5342.55,N,1011.23,W,8.0,07,3.5,13.9,M,0,M,,
Dez 27, 2016 1:58:25 AM gps.NMEA.utils.ChecksumUtilities getCRC
INFORMATION: Created CRC (68)  for Sentence: $GPGGA,015825,5342.55,N,1011.23,W,8.0,07,3.5,13.9,M,0,M,,
Dez 27, 2016 1:58:25 AM gps.NMEA.utils.ChecksumUtilities getCRC
INFORMATION: Created CRC (68)  for Sentence: $GPGGA,015825,5342.55,N,1011.23,W,8.0,07,3.5,13.9,M,0,M,,
Dez 27, 2016 1:58:25 AM gps.NMEA.utils.ChecksumUtilities getCRC
INFORMATION: Created CRC (66)  for Sentence: $GPRMC,015825,A,5342.59,N,1011.27,W,010.1,338.0,271216,,S
Dez 27, 2016 1:58:26 AM gps.NMEA.utils.ChecksumUtilities getCRC
INFORMATION: Created CRC (62)  for Sentence: $GPGGA,015826,5342.71,N,1011.36,W,8.0,11,3.6,13.6,M,0,M,,
Dez 27, 2016 1:58:26 AM gps.NMEA.utils.ChecksumUtilities getCRC
INFORMATION: Created CRC (62)  for Sentence: $GPGGA,015826,5342.71,N,1011.36,W,8.0,11,3.6,13.6,M,0,M,,
Dez 27, 2016 1:58:26 AM gps.NMEA.utils.ChecksumUtilities getCRC
INFORMATION: Created CRC (62)  for Sentence: $GPGGA,015826,5342.71,N,1011.36,W,8.0,11,3.6,13.6,M,0,M,,
Dez 27, 2016 1:58:26 AM gps.NMEA.utils.ChecksumUtilities getCRC
INFORMATION: Created CRC (60)  for Sentence: $GPRMC,015826,A,5342.71,N,1011.36,W,010.2,361.0,271216,,S
Dez 27, 2016 1:58:27 AM gps.NMEA.utils.ChecksumUtilities getCRC
INFORMATION: Created CRC (4F)  for Sentence: $GPRMC,015827,A,5342.83,N,1011.47,E,010.2,21.0,271216,,S
Dez 27, 2016 1:58:27 AM gps.NMEA.utils.ChecksumUtilities getCRC
INFORMATION: Created CRC (4F)  for Sentence: $GPRMC,015827,A,5342.83,N,1011.47,E,010.2,21.0,271216,,S
Dez 27, 2016 1:58:27 AM gps.NMEA.utils.ChecksumUtilities getCRC
INFORMATION: Created CRC (73)  for Sentence: $GPGGA,015827,5342.89,N,1011.47,E,8.0,04,3.4,13.3,M,0,M,,
Dez 27, 2016 1:58:27 AM gps.NMEA.utils.ChecksumUtilities getCRC
INFORMATION: Created CRC (73)  for Sentence: $GPGGA,015827,5342.89,N,1011.47,E,8.0,04,3.4,13.3,M,0,M,,
Dez 27, 2016 1:58:27 AM gps.NMEA.utils.ChecksumUtilities getCRC
INFORMATION: Created CRC (73)  for Sentence: $GPGGA,015827,5342.89,N,1011.47,E,8.0,04,3.4,13.3,M,0,M,,
Dez 27, 2016 1:58:28 AM gps.NMEA.utils.ChecksumUtilities getCRC
INFORMATION: Created CRC (64)  for Sentence: $GPGGA,015828,5342.98,S,1011.66,E,8.0,01,3.5,13.1,M,0,M,,
Dez 27, 2016 1:58:28 AM gps.NMEA.utils.ChecksumUtilities getCRC
INFORMATION: Created CRC (64)  for Sentence: $GPGGA,015828,5342.98,S,1011.66,E,8.0,01,3.5,13.1,M,0,M,,
Dez 27, 2016 1:58:28 AM gps.NMEA.utils.ChecksumUtilities getCRC
INFORMATION: Created CRC (64)  for Sentence: $GPGGA,015828,5342.98,S,1011.66,E,8.0,01,3.5,13.1,M,0,M,,
Dez 27, 2016 1:58:28 AM gps.NMEA.utils.ChecksumUtilities getCRC
INFORMATION: Created CRC (66)  for Sentence: $GPRMC,015828,A,5342.98,S,1011.66,E,010.2,100.0,271216,,S
Dez 27, 2016 1:58:28 AM gps.NMEA.utils.ChecksumUtilities getCRC
INFORMATION: Created CRC (66)  for Sentence: $GPRMC,015828,A,5342.98,S,1011.66,E,010.2,100.0,271216,,S
Dez 27, 2016 1:58:29 AM gps.NMEA.utils.ChecksumUtilities getCRC
INFORMATION: Created CRC (48)  for Sentence: $GPRMC,015829,A,5343.0,S,1011.71,W,010.3,209.0,271216,,S
Dez 27, 2016 1:58:29 AM gps.NMEA.utils.ChecksumUtilities getCRC
INFORMATION: Created CRC (66)  for Sentence: $GPGGA,015829,5343.09,S,1011.83,E,8.0,04,3.3,13.3,M,0,M,,
Dez 27, 2016 1:58:29 AM gps.NMEA.utils.ChecksumUtilities getCRC
INFORMATION: Created CRC (66)  for Sentence: $GPGGA,015829,5343.09,S,1011.83,E,8.0,04,3.3,13.3,M,0,M,,
Dez 27, 2016 1:58:29 AM gps.NMEA.utils.ChecksumUtilities getCRC
INFORMATION: Created CRC (66)  for Sentence: $GPGGA,015829,5343.09,S,1011.83,E,8.0,04,3.3,13.3,M,0,M,,
Dez 27, 2016 1:58:29 AM gps.NMEA.utils.ChecksumUtilities getCRC
INFORMATION: Created CRC (65)  for Sentence: $GPRMC,015829,A,5343.09,S,1011.83,E,010.3,132.0,271216,,S
Dez 27, 2016 1:58:30 AM gps.NMEA.utils.ChecksumUtilities getCRC
INFORMATION: Created CRC (60)  for Sentence: $GPGGA,015830,5343.27,S,1011.95,E,8.0,02,3.2,13.1,M,0,M,,
Dez 27, 2016 1:58:30 AM gps.NMEA.utils.ChecksumUtilities getCRC
INFORMATION: Created CRC (60)  for Sentence: $GPGGA,015830,5343.27,S,1011.95,E,8.0,02,3.2,13.1,M,0,M,,
Dez 27, 2016 1:58:30 AM gps.NMEA.utils.ChecksumUtilities getCRC
INFORMATION: Created CRC (60)  for Sentence: $GPGGA,015830,5343.27,S,1011.95,E,8.0,02,3.2,13.1,M,0,M,,
Dez 27, 2016 1:58:30 AM gps.NMEA.utils.ChecksumUtilities getCRC
INFORMATION: Created CRC (63)  for Sentence: $GPRMC,015830,A,5343.27,S,1011.95,E,010.2,136.0,271216,,S
Dez 27, 2016 1:58:31 AM gps.NMEA.utils.ChecksumUtilities getCRC
INFORMATION: Created CRC (41)  for Sentence: $GPRMC,015831,A,5343.36,N,1011.95,E,010.2,39.0,271216,,S
Dez 27, 2016 1:58:31 AM gps.NMEA.utils.ChecksumUtilities getCRC
INFORMATION: Created CRC (41)  for Sentence: $GPRMC,015831,A,5343.36,N,1011.95,E,010.2,39.0,271216,,S
Dez 27, 2016 1:58:31 AM gps.NMEA.utils.ChecksumUtilities getCRC
INFORMATION: Created CRC (58)  for Sentence: $GPGGA,015831,5343.5,S,1012.05,E,8.0,01,3.0,13.3,M,0,M,,
Dez 27, 2016 1:58:31 AM gps.NMEA.utils.ChecksumUtilities getCRC
INFORMATION: Created CRC (58)  for Sentence: $GPGGA,015831,5343.5,S,1012.05,E,8.0,01,3.0,13.3,M,0,M,,
Dez 27, 2016 1:58:31 AM gps.NMEA.utils.ChecksumUtilities getCRC
INFORMATION: Created CRC (58)  for Sentence: $GPGGA,015831,5343.5,S,1012.05,E,8.0,01,3.0,13.3,M,0,M,,
Dez 27, 2016 1:58:32 AM gps.NMEA.utils.ChecksumUtilities getCRC
INFORMATION: Created CRC (6E)  for Sentence: $GPRMC,015832,A,5343.52,S,1012.09,E,010.3,169.0,271216,,S
Dez 27, 2016 1:58:32 AM gps.NMEA.utils.ChecksumUtilities getCRC
INFORMATION: Created CRC (74)  for Sentence: $GPGGA,015832,5343.57,S,1012.19,W,8.0,04,3.0,13.1,M,0,M,,
Dez 27, 2016 1:58:32 AM gps.NMEA.utils.ChecksumUtilities getCRC
INFORMATION: Created CRC (74)  for Sentence: $GPGGA,015832,5343.57,S,1012.19,W,8.0,04,3.0,13.1,M,0,M,,
Dez 27, 2016 1:58:32 AM gps.NMEA.utils.ChecksumUtilities getCRC
INFORMATION: Created CRC (74)  for Sentence: $GPGGA,015832,5343.57,S,1012.19,W,8.0,04,3.0,13.1,M,0,M,,
Dez 27, 2016 1:58:32 AM gps.NMEA.utils.ChecksumUtilities getCRC
INFORMATION: Created CRC (74)  for Sentence: $GPRMC,015832,A,5343.57,S,1012.19,W,010.2,232.0,271216,,S
Dez 27, 2016 1:58:32 AM gps.NMEA.utils.ChecksumUtilities getCRC
INFORMATION: Created CRC (47)  for Sentence: $GPRMC,015832,A,5343.7,S,1012.34,W,010.3,218.0,271216,,S
Dez 27, 2016 1:58:33 AM gps.NMEA.utils.ChecksumUtilities getCRC
INFORMATION: Created CRC (61)  for Sentence: $GPGGA,015833,5343.82,N,1012.45,W,8.0,05,3.0,12.9,M,0,M,,
Dez 27, 2016 1:58:33 AM gps.NMEA.utils.ChecksumUtilities getCRC
INFORMATION: Created CRC (61)  for Sentence: $GPGGA,015833,5343.82,N,1012.45,W,8.0,05,3.0,12.9,M,0,M,,
Dez 27, 2016 1:58:33 AM gps.NMEA.utils.ChecksumUtilities getCRC
INFORMATION: Created CRC (61)  for Sentence: $GPGGA,015833,5343.82,N,1012.45,W,8.0,05,3.0,12.9,M,0,M,,
Dez 27, 2016 1:58:33 AM gps.NMEA.utils.ChecksumUtilities getCRC
INFORMATION: Created CRC (67)  for Sentence: $GPRMC,015833,A,5343.82,N,1012.45,W,010.3,378.0,271216,,S
Dez 27, 2016 1:58:34 AM gps.NMEA.utils.ChecksumUtilities getCRC
INFORMATION: Created CRC (68)  for Sentence: $GPRMC,015834,A,5343.84,N,1012.52,W,010.3,307.0,271216,,S
Dez 27, 2016 1:58:34 AM gps.NMEA.utils.ChecksumUtilities getCRC
INFORMATION: Created CRC (72)  for Sentence: $GPGGA,015834,5343.91,S,1012.62,W,8.0,03,3.2,13.2,M,0,M,,
Dez 27, 2016 1:58:34 AM gps.NMEA.utils.ChecksumUtilities getCRC
INFORMATION: Created CRC (72)  for Sentence: $GPGGA,015834,5343.91,S,1012.62,W,8.0,03,3.2,13.2,M,0,M,,
Dez 27, 2016 1:58:34 AM gps.NMEA.utils.ChecksumUtilities getCRC
INFORMATION: Created CRC (72)  for Sentence: $GPGGA,015834,5343.91,S,1012.62,W,8.0,03,3.2,13.2,M,0,M,,
Dez 27, 2016 1:58:34 AM gps.NMEA.utils.ChecksumUtilities getCRC
INFORMATION: Created CRC (72)  for Sentence: $GPRMC,015834,A,5343.91,S,1012.62,W,010.2,261.0,271216,,S
Dez 27, 2016 1:58:34 AM gps.NMEA.utils.ChecksumUtilities getCRC
