Dez 26, 2016 6:32:19 PM gps.NMEA.NMEAUtils.ChecksumUtilities getCRC
INFORMATION: Created CRC (7F)  for Sentence: $GPGGA,183219,5333.56,N,1001.42,E,8.0,08,2.1,14.9,M,0,M,,
Dez 26, 2016 6:32:20 PM gps.NMEA.NMEAUtils.ChecksumUtilities getCRC
INFORMATION: Created CRC (52)  for Sentence: $GPRMC,183220,A,5333.71,N,1001.6,W,009.9,301.0,261216,,S
Dez 26, 2016 6:32:20 PM gps.NMEA.NMEAUtils.ChecksumUtilities getCRC
INFORMATION: Created CRC (5A)  for Sentence: $GPGGA,183220,5333.71,N,1001.6,W,8.0,00,2.1,14.9,M,0,M,,
Dez 26, 2016 6:32:21 PM gps.NMEA.NMEAUtils.ChecksumUtilities getCRC
INFORMATION: Created CRC (67)  for Sentence: $GPGGA,183221,5333.78,N,1001.86,W,8.0,11,2.2,14.7,M,0,M,,
Dez 26, 2016 6:32:22 PM gps.NMEA.NMEAUtils.ChecksumUtilities getCRC
INFORMATION: Created CRC (71)  for Sentence: $GPGGA,183222,5333.85,N,1001.91,E,8.0,06,2.4,14.4,M,0,M,,
Dez 26, 2016 6:32:22 PM gps.NMEA.NMEAUtils.ChecksumUtilities getCRC
INFORMATION: Created CRC (44)  for Sentence: $GPRMC,183222,A,5333.85,N,1001.91,E,010.0,88.0,261216,,S
Dez 26, 2016 6:32:23 PM gps.NMEA.NMEAUtils.ChecksumUtilities getCRC
INFORMATION: Created CRC (74)  for Sentence: $GPGGA,183223,5333.94,N,1002.09,E,8.0,01,2.2,14.3,M,0,M,,
Dez 26, 2016 6:32:24 PM gps.NMEA.NMEAUtils.ChecksumUtilities getCRC
INFORMATION: Created CRC (67)  for Sentence: $GPGGA,183224,5333.97,N,1002.24,W,8.0,04,2.0,13.9,M,0,M,,
Dez 26, 2016 6:32:24 PM gps.NMEA.NMEAUtils.ChecksumUtilities getCRC
INFORMATION: Created CRC (73)  for Sentence: $GPRMC,183224,A,5334.04,S,1002.31,W,010.0,283.0,261216,,S
Dez 26, 2016 6:32:25 PM gps.NMEA.NMEAUtils.ChecksumUtilities getCRC
INFORMATION: Created CRC (75)  for Sentence: $GPGGA,183225,5334.15,S,1002.42,W,8.0,01,1.9,14.2,M,0,M,,
Dez 26, 2016 6:32:26 PM gps.NMEA.NMEAUtils.ChecksumUtilities getCRC
INFORMATION: Created CRC (7E)  for Sentence: $GPGGA,183226,5334.21,S,1002.55,W,8.0,05,1.7,14.1,M,0,M,,
Dez 26, 2016 6:32:27 PM gps.NMEA.NMEAUtils.ChecksumUtilities getCRC
INFORMATION: Created CRC (4A)  for Sentence: $GPRMC,183227,A,5334.31,S,1002.6,W,010.1,202.0,261216,,S
Dez 26, 2016 6:32:27 PM gps.NMEA.NMEAUtils.ChecksumUtilities getCRC
INFORMATION: Created CRC (63)  for Sentence: $GPGGA,183227,5334.46,N,1002.74,W,8.0,02,1.7,14.5,M,0,M,,
Dez 26, 2016 6:32:28 PM gps.NMEA.NMEAUtils.ChecksumUtilities getCRC
INFORMATION: Created CRC (4E)  for Sentence: $GPGGA,183228,5334.5,S,1002.79,W,8.0,04,1.7,14.6,M,0,M,,
Dez 26, 2016 6:32:29 PM gps.NMEA.NMEAUtils.ChecksumUtilities getCRC
INFORMATION: Created CRC (72)  for Sentence: $GPGGA,183229,5334.69,S,1002.93,W,8.0,04,1.7,14.5,M,0,M,,
Dez 26, 2016 6:32:29 PM gps.NMEA.NMEAUtils.ChecksumUtilities getCRC
INFORMATION: Created CRC (74)  for Sentence: $GPRMC,183229,A,5334.69,S,1002.93,W,010.0,231.0,261216,,S
Dez 26, 2016 6:32:30 PM gps.NMEA.NMEAUtils.ChecksumUtilities getCRC
INFORMATION: Created CRC (6F)  for Sentence: $GPGGA,183230,5334.78,N,1003.16,W,8.0,06,1.7,14.3,M,0,M,,
Dez 26, 2016 6:32:31 PM gps.NMEA.NMEAUtils.ChecksumUtilities getCRC
INFORMATION: Created CRC (7E)  for Sentence: $GPGGA,183231,5334.83,S,1003.31,W,8.0,05,1.8,14.3,M,0,M,,
Dez 26, 2016 6:32:31 PM gps.NMEA.NMEAUtils.ChecksumUtilities getCRC
INFORMATION: Created CRC (75)  for Sentence: $GPRMC,183231,A,5334.83,S,1003.31,W,010.0,216.0,261216,,S
Dez 26, 2016 6:32:32 PM gps.NMEA.NMEAUtils.ChecksumUtilities getCRC
INFORMATION: Created CRC (7C)  for Sentence: $GPGGA,183232,5334.87,S,1003.45,W,8.0,03,1.9,14.2,M,0,M,,
Dez 26, 2016 6:32:33 PM gps.NMEA.NMEAUtils.ChecksumUtilities getCRC
INFORMATION: Created CRC (62)  for Sentence: $GPGGA,183233,5335.12,S,1003.59,E,8.0,02,1.9,13.9,M,0,M,,
Dez 26, 2016 6:32:33 PM gps.NMEA.NMEAUtils.ChecksumUtilities getCRC
INFORMATION: Created CRC (6C)  for Sentence: $GPRMC,183233,A,5335.14,S,1003.67,E,010.1,166.0,261216,,S
Dez 26, 2016 6:32:34 PM gps.NMEA.NMEAUtils.ChecksumUtilities getCRC
INFORMATION: Created CRC (73)  for Sentence: $GPGGA,183234,5335.17,N,1003.77,E,8.0,00,1.8,13.8,M,0,M,,
Dez 26, 2016 6:32:35 PM gps.NMEA.NMEAUtils.ChecksumUtilities getCRC
INFORMATION: Created CRC (41)  for Sentence: $GPGGA,183235,5335.2,N,1003.86,E,8.0,05,1.9,13.5,M,0,M,,
Dez 26, 2016 6:32:36 PM gps.NMEA.NMEAUtils.ChecksumUtilities getCRC
INFORMATION: Created CRC (43)  for Sentence: $GPRMC,183236,A,5335.31,N,1003.89,E,010.1,98.0,261216,,S
Dez 26, 2016 6:32:36 PM gps.NMEA.NMEAUtils.ChecksumUtilities getCRC
INFORMATION: Created CRC (43)  for Sentence: $GPGGA,183236,5335.32,N,1004.0,E,8.0,07,2.1,13.7,M,0,M,,
Dez 26, 2016 6:32:37 PM gps.NMEA.NMEAUtils.ChecksumUtilities getCRC
INFORMATION: Created CRC (7C)  for Sentence: $GPGGA,183237,5335.48,N,1004.09,E,8.0,03,2.1,13.9,M,0,M,,
Dez 26, 2016 6:32:38 PM gps.NMEA.NMEAUtils.ChecksumUtilities getCRC
INFORMATION: Created CRC (6E)  for Sentence: $GPGGA,183238,5335.63,S,1004.17,E,8.0,06,2.2,13.9,M,0,M,,
Dez 26, 2016 6:32:38 PM gps.NMEA.NMEAUtils.ChecksumUtilities getCRC
INFORMATION: Created CRC (60)  for Sentence: $GPRMC,183238,A,5335.63,S,1004.17,E,010.1,161.0,261216,,S
Dez 26, 2016 6:32:39 PM gps.NMEA.NMEAUtils.ChecksumUtilities getCRC
INFORMATION: Created CRC (65)  for Sentence: $GPGGA,183239,5335.71,S,1004.44,E,8.0,04,2.3,14.2,M,0,M,,
Dez 26, 2016 6:32:40 PM gps.NMEA.NMEAUtils.ChecksumUtilities getCRC
INFORMATION: Created CRC (6B)  for Sentence: $GPGGA,183240,5335.78,N,1004.58,W,8.0,09,2.4,14.3,M,0,M,,
Dez 26, 2016 6:32:40 PM gps.NMEA.NMEAUtils.ChecksumUtilities getCRC
INFORMATION: Created CRC (60)  for Sentence: $GPRMC,183240,A,5335.78,N,1004.58,W,010.0,341.0,261216,,S
Dez 26, 2016 6:32:41 PM gps.NMEA.NMEAUtils.ChecksumUtilities getCRC
INFORMATION: Created CRC (79)  for Sentence: $GPGGA,183241,5335.99,N,1004.75,E,8.0,08,2.6,14.1,M,0,M,,
Dez 26, 2016 6:32:42 PM gps.NMEA.NMEAUtils.ChecksumUtilities getCRC
INFORMATION: Created CRC (73)  for Sentence: $GPGGA,183242,5336.12,S,1004.87,W,8.0,03,2.7,14.0,M,0,M,,
Dez 26, 2016 6:32:43 PM gps.NMEA.NMEAUtils.ChecksumUtilities getCRC
INFORMATION: Created CRC (7C)  for Sentence: $GPRMC,183243,A,5336.23,S,1004.91,W,010.2,259.0,261216,,S
Dez 26, 2016 6:32:43 PM gps.NMEA.NMEAUtils.ChecksumUtilities getCRC
INFORMATION: Created CRC (6A)  for Sentence: $GPGGA,183243,5336.36,N,1005.01,W,8.0,11,2.6,13.9,M,0,M,,
Dez 26, 2016 6:32:44 PM gps.NMEA.NMEAUtils.ChecksumUtilities getCRC
INFORMATION: Created CRC (63)  for Sentence: $GPGGA,183244,5336.51,N,1005.24,W,8.0,04,2.7,14.3,M,0,M,,
Dez 26, 2016 6:32:45 PM gps.NMEA.NMEAUtils.ChecksumUtilities getCRC
INFORMATION: Created CRC (59)  for Sentence: $GPGGA,183245,5336.68,N,1005.3,W,8.0,00,2.7,14.3,M,0,M,,
Dez 26, 2016 6:32:45 PM gps.NMEA.NMEAUtils.ChecksumUtilities getCRC
INFORMATION: Created CRC (5E)  for Sentence: $GPRMC,183245,A,5336.68,N,1005.3,W,010.1,320.0,261216,,S
Dez 26, 2016 6:32:46 PM gps.NMEA.NMEAUtils.ChecksumUtilities getCRC
INFORMATION: Created CRC (4A)  for Sentence: $GPGGA,183246,5336.8,S,1005.45,W,8.0,10,2.9,14.5,M,0,M,,
Dez 26, 2016 6:32:47 PM gps.NMEA.NMEAUtils.ChecksumUtilities getCRC
INFORMATION: Created CRC (74)  for Sentence: $GPGGA,183247,5336.93,N,1005.65,E,8.0,07,2.9,14.3,M,0,M,,
Dez 26, 2016 6:32:47 PM gps.NMEA.NMEAUtils.ChecksumUtilities getCRC
INFORMATION: Created CRC (42)  for Sentence: $GPRMC,183247,A,5336.93,N,1005.65,E,010.1,18.0,261216,,S
Dez 26, 2016 6:32:48 PM gps.NMEA.NMEAUtils.ChecksumUtilities getCRC
INFORMATION: Created CRC (62)  for Sentence: $GPGGA,183248,5336.97,N,1005.76,W,8.0,09,2.8,14.1,M,0,M,,
Dez 26, 2016 6:32:49 PM gps.NMEA.NMEAUtils.ChecksumUtilities getCRC
INFORMATION: Created CRC (6B)  for Sentence: $GPGGA,183249,5337.13,N,1005.95,W,8.0,05,2.9,14.4,M,0,M,,
Dez 26, 2016 6:32:49 PM gps.NMEA.NMEAUtils.ChecksumUtilities getCRC
INFORMATION: Created CRC (5C)  for Sentence: $GPRMC,183249,A,5337.17,N,1006.0,W,010.2,335.0,261216,,S
Dez 26, 2016 6:32:50 PM gps.NMEA.NMEAUtils.ChecksumUtilities getCRC
INFORMATION: Created CRC (77)  for Sentence: $GPGGA,183250,5337.27,N,1006.09,E,8.0,05,2.9,14.3,M,0,M,,
Dez 26, 2016 6:32:51 PM gps.NMEA.NMEAUtils.ChecksumUtilities getCRC
INFORMATION: Created CRC (40)  for Sentence: $GPGGA,183251,5337.4,N,1006.31,E,8.0,10,3.1,14.2,M,0,M,,
Dez 26, 2016 6:32:52 PM gps.NMEA.NMEAUtils.ChecksumUtilities getCRC
INFORMATION: Created CRC (40)  for Sentence: $GPRMC,183252,A,5337.51,N,1006.33,E,010.0,23.0,261216,,S
Dez 26, 2016 6:32:52 PM gps.NMEA.NMEAUtils.ChecksumUtilities getCRC
INFORMATION: Created CRC (73)  for Sentence: $GPGGA,183252,5337.61,N,1006.43,E,8.0,07,3.1,14.2,M,0,M,,
Dez 26, 2016 6:32:53 PM gps.NMEA.NMEAUtils.ChecksumUtilities getCRC
INFORMATION: Created CRC (69)  for Sentence: $GPGGA,183253,5337.75,S,1006.55,E,8.0,02,3.1,14.3,M,0,M,,
Dez 26, 2016 6:32:54 PM gps.NMEA.NMEAUtils.ChecksumUtilities getCRC
INFORMATION: Created CRC (6E)  for Sentence: $GPGGA,183254,5337.94,S,1006.68,E,8.0,00,3.2,14.3,M,0,M,,
Dez 26, 2016 6:32:54 PM gps.NMEA.NMEAUtils.ChecksumUtilities getCRC
INFORMATION: Created CRC (6F)  for Sentence: $GPRMC,183254,A,5337.94,S,1006.68,E,010.1,120.0,261216,,S
Dez 26, 2016 6:32:55 PM gps.NMEA.NMEAUtils.ChecksumUtilities getCRC
INFORMATION: Created CRC (67)  for Sentence: $GPGGA,183255,5338.12,S,1006.74,E,8.0,04,3.2,14.3,M,0,M,,
Dez 26, 2016 6:32:56 PM gps.NMEA.NMEAUtils.ChecksumUtilities getCRC
INFORMATION: Created CRC (7C)  for Sentence: $GPGGA,183256,5338.24,S,1006.86,W,8.0,07,3.1,14.1,M,0,M,,
Dez 26, 2016 6:32:56 PM gps.NMEA.NMEAUtils.ChecksumUtilities getCRC
INFORMATION: Created CRC (78)  for Sentence: $GPRMC,183256,A,5338.24,S,1006.86,W,010.2,298.0,261216,,S
Dez 26, 2016 6:32:57 PM gps.NMEA.NMEAUtils.ChecksumUtilities getCRC
INFORMATION: Created CRC (66)  for Sentence: $GPGGA,183257,5338.37,S,1006.98,E,8.0,05,3.2,14.4,M,0,M,,
Dez 26, 2016 6:32:58 PM gps.NMEA.NMEAUtils.ChecksumUtilities getCRC
INFORMATION: Created CRC (78)  for Sentence: $GPGGA,183258,5338.48,N,1007.09,E,8.0,09,3.2,14.5,M,0,M,,
Dez 26, 2016 6:32:59 PM gps.NMEA.NMEAUtils.ChecksumUtilities getCRC
INFORMATION: Created CRC (43)  for Sentence: $GPRMC,183259,A,5338.59,N,1007.19,E,010.2,50.0,261216,,S
Dez 26, 2016 6:32:59 PM gps.NMEA.NMEAUtils.ChecksumUtilities getCRC
INFORMATION: Created CRC (6B)  for Sentence: $GPGGA,183259,5338.73,N,1007.24,W,8.0,09,3.2,14.2,M,0,M,,
Dez 26, 2016 6:33:00 PM gps.NMEA.NMEAUtils.ChecksumUtilities getCRC
INFORMATION: Created CRC (7D)  for Sentence: $GPGGA,183300,5338.92,N,1007.39,E,8.0,04,3.1,14.6,M,0,M,,
Dez 26, 2016 6:33:01 PM gps.NMEA.NMEAUtils.ChecksumUtilities getCRC
INFORMATION: Created CRC (7F)  for Sentence: $GPRMC,183301,A,5339.05,N,1007.47,E,010.0,4.0,261216,,S
Dez 26, 2016 6:33:01 PM gps.NMEA.NMEAUtils.ChecksumUtilities getCRC
INFORMATION: Created CRC (5E)  for Sentence: $GPGGA,183301,5339.1,N,1007.57,W,8.0,05,3.3,14.6,M,0,M,,
Dez 26, 2016 6:33:02 PM gps.NMEA.NMEAUtils.ChecksumUtilities getCRC
INFORMATION: Created CRC (50)  for Sentence: $GPGGA,183302,5339.2,N,1007.72,W,8.0,09,3.1,15.0,M,0,M,,
Dez 26, 2016 6:33:03 PM gps.NMEA.NMEAUtils.ChecksumUtilities getCRC
INFORMATION: Created CRC (7E)  for Sentence: $GPGGA,183303,5339.41,N,1007.87,E,8.0,08,3.0,15.0,M,0,M,,
Dez 26, 2016 6:33:03 PM gps.NMEA.NMEAUtils.ChecksumUtilities getCRC
INFORMATION: Created CRC (4E)  for Sentence: $GPRMC,183303,A,5339.41,N,1007.87,E,010.2,90.0,261216,,S
Dez 26, 2016 6:33:04 PM gps.NMEA.NMEAUtils.ChecksumUtilities getCRC
INFORMATION: Created CRC (4D)  for Sentence: $GPGGA,183304,5339.57,S,1008.0,W,8.0,06,3.1,15.3,M,0,M,,
Dez 26, 2016 6:33:05 PM gps.NMEA.NMEAUtils.ChecksumUtilities getCRC
INFORMATION: Created CRC (6E)  for Sentence: $GPGGA,183305,5339.81,N,1008.15,W,8.0,00,3.1,15.5,M,0,M,,
Dez 26, 2016 6:33:05 PM gps.NMEA.NMEAUtils.ChecksumUtilities getCRC
INFORMATION: Created CRC (47)  for Sentence: $GPRMC,183305,A,5339.89,N,1008.23,E,010.2,65.0,261216,,S
Dez 26, 2016 6:33:06 PM gps.NMEA.NMEAUtils.ChecksumUtilities getCRC
INFORMATION: Created CRC (7D)  for Sentence: $GPGGA,183306,5339.91,N,1008.31,E,8.0,04,3.2,15.7,M,0,M,,
Dez 26, 2016 6:33:07 PM gps.NMEA.NMEAUtils.ChecksumUtilities getCRC
INFORMATION: Created CRC (78)  for Sentence: $GPGGA,183307,5340.12,N,1008.46,E,8.0,01,3.2,16.0,M,0,M,,
Dez 26, 2016 6:33:08 PM gps.NMEA.NMEAUtils.ChecksumUtilities getCRC
INFORMATION: Created CRC (64)  for Sentence: $GPRMC,183308,A,5340.27,N,1008.53,W,010.2,323.0,261216,,S
Dez 26, 2016 6:33:08 PM gps.NMEA.NMEAUtils.ChecksumUtilities getCRC
INFORMATION: Created CRC (76)  for Sentence: $GPGGA,183308,5340.38,S,1008.62,W,8.0,01,3.2,16.0,M,0,M,,
Dez 26, 2016 6:33:09 PM gps.NMEA.NMEAUtils.ChecksumUtilities getCRC
INFORMATION: Created CRC (66)  for Sentence: $GPGGA,183309,5340.58,S,1008.77,E,8.0,00,3.3,16.1,M,0,M,,
Dez 26, 2016 6:33:10 PM gps.NMEA.NMEAUtils.ChecksumUtilities getCRC
INFORMATION: Created CRC (65)  for Sentence: $GPGGA,183310,5340.76,S,1008.98,E,8.0,03,3.5,16.2,M,0,M,,
Dez 26, 2016 6:33:10 PM gps.NMEA.NMEAUtils.ChecksumUtilities getCRC
INFORMATION: Created CRC (6E)  for Sentence: $GPRMC,183310,A,5340.76,S,1008.98,E,010.2,184.0,261216,,S
Dez 26, 2016 6:33:11 PM gps.NMEA.NMEAUtils.ChecksumUtilities getCRC
INFORMATION: Created CRC (4B)  for Sentence: $GPGGA,183311,5341.02,S,1009.0,W,8.0,06,3.7,15.9,M,0,M,,
Dez 26, 2016 6:33:12 PM gps.NMEA.NMEAUtils.ChecksumUtilities getCRC
INFORMATION: Created CRC (7E)  for Sentence: $GPGGA,183312,5341.08,N,1009.21,E,8.0,06,3.7,15.9,M,0,M,,
Dez 26, 2016 6:33:12 PM gps.NMEA.NMEAUtils.ChecksumUtilities getCRC
INFORMATION: Created CRC (4D)  for Sentence: $GPRMC,183312,A,5341.08,N,1009.21,E,010.1,90.0,261216,,S
Dez 26, 2016 6:33:13 PM gps.NMEA.NMEAUtils.ChecksumUtilities getCRC
INFORMATION: Created CRC (7B)  for Sentence: $GPGGA,183313,5341.18,N,1009.31,E,8.0,08,3.7,16.0,M,0,M,,
Dez 26, 2016 6:33:14 PM gps.NMEA.NMEAUtils.ChecksumUtilities getCRC
INFORMATION: Created CRC (78)  for Sentence: $GPGGA,183314,5341.36,S,1009.37,W,8.0,08,3.7,16.1,M,0,M,,
Dez 26, 2016 6:33:14 PM gps.NMEA.NMEAUtils.ChecksumUtilities getCRC
INFORMATION: Created CRC (7E)  for Sentence: $GPRMC,183314,A,5341.39,S,1009.41,W,010.2,242.0,261216,,S
Dez 26, 2016 6:33:15 PM gps.NMEA.NMEAUtils.ChecksumUtilities getCRC
INFORMATION: Created CRC (75)  for Sentence: $GPGGA,183315,5341.48,S,1009.45,W,8.0,08,3.7,16.1,M,0,M,,
Dez 26, 2016 6:33:16 PM gps.NMEA.NMEAUtils.ChecksumUtilities getCRC
INFORMATION: Created CRC (55)  for Sentence: $GPGGA,183316,5341.63,S,1009.7,E,8.0,07,3.7,16.0,M,0,M,,
Dez 26, 2016 6:33:17 PM gps.NMEA.NMEAUtils.ChecksumUtilities getCRC
INFORMATION: Created CRC (7B)  for Sentence: $GPRMC,183317,A,5341.63,S,1009.76,W,010.1,208.0,261216,,S
Dez 26, 2016 6:33:17 PM gps.NMEA.NMEAUtils.ChecksumUtilities getCRC
INFORMATION: Created CRC (6E)  for Sentence: $GPGGA,183317,5341.77,S,1009.82,E,8.0,06,3.7,16.3,M,0,M,,
Dez 26, 2016 6:33:18 PM gps.NMEA.NMEAUtils.ChecksumUtilities getCRC
INFORMATION: Created CRC (6E)  for Sentence: $GPGGA,183318,5341.97,S,1009.96,E,8.0,11,3.7,16.1,M,0,M,,
Dez 26, 2016 6:33:19 PM gps.NMEA.NMEAUtils.ChecksumUtilities getCRC
INFORMATION: Created CRC (7F)  for Sentence: $GPGGA,183319,5342.02,N,1010.03,E,8.0,06,3.7,16.1,M,0,M,,
Dez 26, 2016 6:33:19 PM gps.NMEA.NMEAUtils.ChecksumUtilities getCRC
INFORMATION: Created CRC (43)  for Sentence: $GPRMC,183319,A,5342.02,N,1010.03,E,010.1,49.0,261216,,S
Dez 26, 2016 6:33:20 PM gps.NMEA.NMEAUtils.ChecksumUtilities getCRC
INFORMATION: Created CRC (78)  for Sentence: $GPGGA,183320,5342.28,S,1010.13,W,8.0,02,3.8,16.1,M,0,M,,
Dez 26, 2016 6:33:21 PM gps.NMEA.NMEAUtils.ChecksumUtilities getCRC
INFORMATION: Created CRC (68)  for Sentence: $GPGGA,183321,5342.43,N,1010.38,W,8.0,01,3.8,15.9,M,0,M,,
Dez 26, 2016 6:33:21 PM gps.NMEA.NMEAUtils.ChecksumUtilities getCRC
INFORMATION: Created CRC (66)  for Sentence: $GPRMC,183321,A,5342.43,N,1010.38,W,010.2,359.0,261216,,S
Dez 26, 2016 6:33:22 PM gps.NMEA.NMEAUtils.ChecksumUtilities getCRC
INFORMATION: Created CRC (67)  for Sentence: $GPGGA,183322,5342.53,N,1010.45,W,8.0,09,3.7,15.9,M,0,M,,
Dez 26, 2016 6:33:23 PM gps.NMEA.NMEAUtils.ChecksumUtilities getCRC
INFORMATION: Created CRC (70)  for Sentence: $GPGGA,183323,5342.71,S,1010.65,W,8.0,07,3.8,16.2,M,0,M,,
Dez 26, 2016 6:33:24 PM gps.NMEA.NMEAUtils.ChecksumUtilities getCRC
INFORMATION: Created CRC (59)  for Sentence: $GPRMC,183324,A,5342.79,N,1010.7,W,010.1,322.0,261216,,S
Dez 26, 2016 6:33:24 PM gps.NMEA.NMEAUtils.ChecksumUtilities getCRC
INFORMATION: Created CRC (72)  for Sentence: $GPGGA,183324,5342.92,S,1010.84,W,8.0,01,3.9,16.2,M,0,M,,
Dez 26, 2016 6:33:25 PM gps.NMEA.NMEAUtils.ChecksumUtilities getCRC
INFORMATION: Created CRC (71)  for Sentence: $GPGGA,183325,5343.05,S,1010.97,W,8.0,00,3.7,16.2,M,0,M,,
Dez 26, 2016 6:33:26 PM gps.NMEA.NMEAUtils.ChecksumUtilities getCRC
INFORMATION: Created CRC (6C)  for Sentence: $GPGGA,183326,5343.17,S,1011.12,E,8.0,07,3.5,16.4,M,0,M,,
Dez 26, 2016 6:33:26 PM gps.NMEA.NMEAUtils.ChecksumUtilities getCRC
INFORMATION: Created CRC (6A)  for Sentence: $GPRMC,183326,A,5343.17,S,1011.12,E,010.1,199.0,261216,,S
Dez 26, 2016 6:33:27 PM gps.NMEA.NMEAUtils.ChecksumUtilities getCRC
INFORMATION: Created CRC (75)  for Sentence: $GPGGA,183327,5343.33,S,1011.28,W,8.0,07,3.7,16.3,M,0,M,,
Dez 26, 2016 6:33:28 PM gps.NMEA.NMEAUtils.ChecksumUtilities getCRC
INFORMATION: Created CRC (60)  for Sentence: $GPGGA,183328,5343.45,S,1011.54,E,8.0,05,3.7,16.3,M,0,M,,
Dez 26, 2016 6:33:28 PM gps.NMEA.NMEAUtils.ChecksumUtilities getCRC
INFORMATION: Created CRC (60)  for Sentence: $GPRMC,183328,A,5343.45,S,1011.54,E,010.1,101.0,261216,,S
Dez 26, 2016 6:33:29 PM gps.NMEA.NMEAUtils.ChecksumUtilities getCRC
INFORMATION: Created CRC (65)  for Sentence: $GPGGA,183329,5343.6,S,1011.7,E,8.0,00,3.6,16.2,M,0,M,,
Dez 26, 2016 6:33:30 PM gps.NMEA.NMEAUtils.ChecksumUtilities getCRC
INFORMATION: Created CRC (77)  for Sentence: $GPGGA,183330,5343.73,S,1011.92,W,8.0,07,3.7,16.2,M,0,M,,
Dez 26, 2016 6:33:30 PM gps.NMEA.NMEAUtils.ChecksumUtilities getCRC
INFORMATION: Created CRC (72)  for Sentence: $GPRMC,183330,A,5343.76,S,1011.98,W,010.1,292.0,261216,,S
Dez 26, 2016 6:33:31 PM gps.NMEA.NMEAUtils.ChecksumUtilities getCRC
INFORMATION: Created CRC (6C)  for Sentence: $GPGGA,183331,5343.79,N,1012.05,W,8.0,04,3.7,16.1,M,0,M,,
Dez 26, 2016 6:33:32 PM gps.NMEA.NMEAUtils.ChecksumUtilities getCRC
INFORMATION: Created CRC (61)  for Sentence: $GPGGA,183332,5343.97,N,1012.19,W,8.0,02,3.8,15.8,M,0,M,,
Dez 26, 2016 6:33:33 PM gps.NMEA.NMEAUtils.ChecksumUtilities getCRC
INFORMATION: Created CRC (6E)  for Sentence: $GPRMC,183333,A,5344.01,N,1012.32,W,010.3,379.0,261216,,S
Dez 26, 2016 6:33:33 PM gps.NMEA.NMEAUtils.ChecksumUtilities getCRC
INFORMATION: Created CRC (74)  for Sentence: $GPGGA,183333,5344.15,S,1012.46,W,8.0,08,3.7,16.0,M,0,M,,
Dez 26, 2016 6:33:34 PM gps.NMEA.NMEAUtils.ChecksumUtilities getCRC
INFORMATION: Created CRC (6B)  for Sentence: $GPGGA,183334,5344.33,S,1012.67,E,8.0,04,3.5,16.3,M,0,M,,
Dez 26, 2016 6:33:35 PM gps.NMEA.NMEAUtils.ChecksumUtilities getCRC
INFORMATION: Created CRC (76)  for Sentence: $GPGGA,183335,5344.47,N,1012.86,E,8.0,08,3.6,16.1,M,0,M,,
Dez 26, 2016 6:33:35 PM gps.NMEA.NMEAUtils.ChecksumUtilities getCRC
INFORMATION: Created CRC (45)  for Sentence: $GPRMC,183335,A,5344.47,N,1012.86,E,010.2,79.0,261216,,S
Dez 26, 2016 6:33:36 PM gps.NMEA.NMEAUtils.ChecksumUtilities getCRC
INFORMATION: Created CRC (48)  for Sentence: $GPGGA,183336,5344.7,N,1012.97,E,8.0,00,3.7,16.1,M,0,M,,
Dez 26, 2016 6:33:37 PM gps.NMEA.NMEAUtils.ChecksumUtilities getCRC
INFORMATION: Created CRC (5A)  for Sentence: $GPGGA,183337,5344.8,N,1013.09,W,8.0,10,3.5,15.9,M,0,M,,
Dez 26, 2016 6:33:37 PM gps.NMEA.NMEAUtils.ChecksumUtilities getCRC
INFORMATION: Created CRC (5C)  for Sentence: $GPRMC,183337,A,5344.8,N,1013.09,W,010.1,339.0,261216,,S
Dez 26, 2016 6:33:38 PM gps.NMEA.NMEAUtils.ChecksumUtilities getCRC
INFORMATION: Created CRC (77)  for Sentence: $GPGGA,183338,5344.86,N,1013.34,E,8.0,08,3.5,15.8,M,0,M,,
Dez 26, 2016 6:33:39 PM gps.NMEA.NMEAUtils.ChecksumUtilities getCRC
INFORMATION: Created CRC (6B)  for Sentence: $GPGGA,183339,5345.01,S,1013.54,E,8.0,08,3.6,16.0,M,0,M,,
Dez 26, 2016 6:33:39 PM gps.NMEA.NMEAUtils.ChecksumUtilities getCRC
INFORMATION: Created CRC (79)  for Sentence: $GPRMC,183339,A,5345.13,S,1013.55,W,010.3,285.0,261216,,S
Dez 26, 2016 6:33:40 PM gps.NMEA.NMEAUtils.ChecksumUtilities getCRC
INFORMATION: Created CRC (65)  for Sentence: $GPGGA,183340,5345.13,N,1013.63,W,8.0,10,3.6,16.1,M,0,M,,
Dez 26, 2016 6:33:41 PM gps.NMEA.NMEAUtils.ChecksumUtilities getCRC
INFORMATION: Created CRC (43)  for Sentence: $GPGGA,183341,5345.28,N,1013.8,E,8.0,10,3.6,16.1,M,0,M,,
Dez 26, 2016 6:33:42 PM gps.NMEA.NMEAUtils.ChecksumUtilities getCRC
INFORMATION: Created CRC (7C)  for Sentence: $GPRMC,183342,A,5345.4,N,1013.84,E,010.3,56.0,261216,,S
Dez 26, 2016 6:33:42 PM gps.NMEA.NMEAUtils.ChecksumUtilities getCRC
INFORMATION: Created CRC (58)  for Sentence: $GPGGA,183342,5345.4,S,1013.91,E,8.0,04,3.8,16.1,M,0,M,,
Dez 26, 2016 6:33:43 PM gps.NMEA.NMEAUtils.ChecksumUtilities getCRC
INFORMATION: Created CRC (77)  for Sentence: $GPGGA,183343,5345.64,S,1014.04,W,8.0,01,3.8,16.5,M,0,M,,
Dez 26, 2016 6:33:44 PM gps.NMEA.NMEAUtils.ChecksumUtilities getCRC
INFORMATION: Created CRC (63)  for Sentence: $GPGGA,183344,5345.92,N,1014.17,W,8.0,05,3.9,16.5,M,0,M,,
Dez 26, 2016 6:33:44 PM gps.NMEA.NMEAUtils.ChecksumUtilities getCRC
INFORMATION: Created CRC (69)  for Sentence: $GPRMC,183344,A,5345.92,N,1014.17,W,010.3,303.0,261216,,S
Dez 26, 2016 6:33:45 PM gps.NMEA.NMEAUtils.ChecksumUtilities getCRC
INFORMATION: Created CRC (73)  for Sentence: $GPGGA,183345,5346.06,S,1014.31,W,8.0,05,3.9,16.3,M,0,M,,
Dez 26, 2016 6:33:46 PM gps.NMEA.NMEAUtils.ChecksumUtilities getCRC
INFORMATION: Created CRC (7F)  for Sentence: $GPGGA,183346,5346.13,S,1014.39,W,8.0,05,3.8,16.1,M,0,M,,
Dez 26, 2016 6:33:46 PM gps.NMEA.NMEAUtils.ChecksumUtilities getCRC
INFORMATION: Created CRC (79)  for Sentence: $GPRMC,183346,A,5346.24,S,1014.52,W,010.2,247.0,261216,,S
Dez 26, 2016 6:33:47 PM gps.NMEA.NMEAUtils.ChecksumUtilities getCRC
INFORMATION: Created CRC (5A)  for Sentence: $GPGGA,183347,5346.29,S,1014.6,E,8.0,09,3.7,16.1,M,0,M,,
Dez 26, 2016 6:33:48 PM gps.NMEA.NMEAUtils.ChecksumUtilities getCRC
INFORMATION: Created CRC (5E)  for Sentence: $GPGGA,183348,5346.4,S,1014.77,E,8.0,09,3.5,16.1,M,0,M,,
Dez 26, 2016 6:33:49 PM gps.NMEA.NMEAUtils.ChecksumUtilities getCRC
INFORMATION: Created CRC (5C)  for Sentence: $GPRMC,183349,A,5346.45,S,1014.8,E,010.2,122.0,261216,,S
Dez 26, 2016 6:33:49 PM gps.NMEA.NMEAUtils.ChecksumUtilities getCRC
INFORMATION: Created CRC (69)  for Sentence: $GPGGA,183349,5346.47,S,1014.86,E,8.0,06,3.5,16.1,M,0,M,,
Dez 26, 2016 6:33:50 PM gps.NMEA.NMEAUtils.ChecksumUtilities getCRC
INFORMATION: Created CRC (6B)  for Sentence: $GPGGA,183350,5346.66,S,1015.02,E,8.0,04,3.6,16.4,M,0,M,,
Dez 26, 2016 6:33:51 PM gps.NMEA.NMEAUtils.ChecksumUtilities getCRC
INFORMATION: Created CRC (66)  for Sentence: $GPGGA,183351,5346.82,S,1015.15,E,8.0,05,3.6,16.5,M,0,M,,
Dez 26, 2016 6:33:51 PM gps.NMEA.NMEAUtils.ChecksumUtilities getCRC
INFORMATION: Created CRC (63)  for Sentence: $GPRMC,183351,A,5346.82,S,1015.15,E,010.2,155.0,261216,,S
Dez 26, 2016 6:33:52 PM gps.NMEA.NMEAUtils.ChecksumUtilities getCRC
INFORMATION: Created CRC (55)  for Sentence: $GPGGA,183352,5347.0,N,1015.37,W,8.0,01,3.6,16.5,M,0,M,,
Dez 26, 2016 6:33:53 PM gps.NMEA.NMEAUtils.ChecksumUtilities getCRC
INFORMATION: Created CRC (71)  for Sentence: $GPGGA,183353,5347.13,N,1015.56,E,8.0,11,3.5,16.5,M,0,M,,
Dez 26, 2016 6:33:53 PM gps.NMEA.NMEAUtils.ChecksumUtilities getCRC
INFORMATION: Created CRC (44)  for Sentence: $GPRMC,183353,A,5347.13,N,1015.56,E,010.3,60.0,261216,,S
Dez 26, 2016 6:33:54 PM gps.NMEA.NMEAUtils.ChecksumUtilities getCRC
INFORMATION: Created CRC (62)  for Sentence: $GPGGA,183354,5347.18,S,1015.66,E,8.0,06,3.3,16.4,M,0,M,,
Dez 26, 2016 6:33:55 PM gps.NMEA.NMEAUtils.ChecksumUtilities getCRC
INFORMATION: Created CRC (78)  for Sentence: $GPGGA,183355,5347.27,S,1015.72,W,8.0,04,3.3,16.6,M,0,M,,
Dez 26, 2016 6:33:55 PM gps.NMEA.NMEAUtils.ChecksumUtilities getCRC
INFORMATION: Created CRC (75)  for Sentence: $GPRMC,183355,A,5347.29,S,1015.85,W,010.2,228.0,261216,,S
Dez 26, 2016 6:33:56 PM gps.NMEA.NMEAUtils.ChecksumUtilities getCRC
INFORMATION: Created CRC (4D)  for Sentence: $GPGGA,183356,5347.36,S,1016.0,W,8.0,05,3.3,16.7,M,0,M,,
Dez 26, 2016 6:33:57 PM gps.NMEA.NMEAUtils.ChecksumUtilities getCRC
INFORMATION: Created CRC (5E)  for Sentence: $GPGGA,183357,5347.56,S,1016.1,E,8.0,11,3.1,16.7,M,0,M,,
Dez 26, 2016 6:33:58 PM gps.NMEA.NMEAUtils.ChecksumUtilities getCRC
INFORMATION: Created CRC (6F)  for Sentence: $GPRMC,183358,A,5347.61,S,1016.22,E,010.2,168.0,261216,,S
Dez 26, 2016 6:33:58 PM gps.NMEA.NMEAUtils.ChecksumUtilities getCRC
INFORMATION: Created CRC (66)  for Sentence: $GPGGA,183358,5347.63,S,1016.33,E,8.0,03,3.1,16.4,M,0,M,,
Dez 26, 2016 6:33:59 PM gps.NMEA.NMEAUtils.ChecksumUtilities getCRC
INFORMATION: Created CRC (6E)  for Sentence: $GPGGA,183359,5347.85,S,1016.45,E,8.0,06,3.2,16.2,M,0,M,,
Dez 26, 2016 6:34:00 PM gps.NMEA.NMEAUtils.ChecksumUtilities getCRC
INFORMATION: Created CRC (74)  for Sentence: $GPGGA,183400,5348.05,N,1016.48,E,8.0,01,3.2,16.3,M,0,M,,
Dez 26, 2016 6:34:00 PM gps.NMEA.NMEAUtils.ChecksumUtilities getCRC
INFORMATION: Created CRC (4D)  for Sentence: $GPRMC,183400,A,5348.05,N,1016.48,E,010.2,83.0,261216,,S
Dez 26, 2016 6:34:01 PM gps.NMEA.NMEAUtils.ChecksumUtilities getCRC
INFORMATION: Created CRC (7B)  for Sentence: $GPGGA,183401,5348.11,N,1016.52,E,8.0,10,3.4,16.5,M,0,M,,
Dez 26, 2016 6:34:02 PM gps.NMEA.NMEAUtils.ChecksumUtilities getCRC
INFORMATION: Created CRC (6F)  for Sentence: $GPGGA,183402,5348.21,S,1016.63,E,8.0,06,3.4,16.9,M,0,M,,
Dez 26, 2016 6:34:02 PM gps.NMEA.NMEAUtils.ChecksumUtilities getCRC
INFORMATION: Created CRC (62)  for Sentence: $GPRMC,183402,A,5348.21,S,1016.63,E,010.4,174.0,261216,,S
Dez 26, 2016 6:34:03 PM gps.NMEA.NMEAUtils.ChecksumUtilities getCRC
INFORMATION: Created CRC (6B)  for Sentence: $GPGGA,183403,5348.38,S,1016.86,E,8.0,00,3.4,16.9,M,0,M,,
Dez 26, 2016 6:34:04 PM gps.NMEA.NMEAUtils.ChecksumUtilities getCRC
INFORMATION: Created CRC (65)  for Sentence: $GPGGA,183404,5348.47,S,1017.12,E,8.0,10,3.6,16.7,M,0,M,,
Dez 26, 2016 6:34:05 PM gps.NMEA.NMEAUtils.ChecksumUtilities getCRC
INFORMATION: Created CRC (6B)  for Sentence: $GPRMC,183405,A,5348.49,S,1017.24,E,010.3,124.0,261216,,S
Dez 26, 2016 6:34:05 PM gps.NMEA.NMEAUtils.ChecksumUtilities getCRC
INFORMATION: Created CRC (72)  for Sentence: $GPGGA,183405,5348.5,S,1017.3,W,8.0,02,3.4,16.4,M,0,M,,
Dez 26, 2016 6:34:06 PM gps.NMEA.NMEAUtils.ChecksumUtilities getCRC
INFORMATION: Created CRC (76)  for Sentence: $GPGGA,183406,5348.62,S,1017.35,W,8.0,06,3.3,16.4,M,0,M,,
Dez 26, 2016 6:34:07 PM gps.NMEA.NMEAUtils.ChecksumUtilities getCRC
INFORMATION: Created CRC (74)  for Sentence: $GPRMC,183407,A,5348.64,S,1017.42,W,010.2,240.0,261216,,S
Dez 26, 2016 6:34:07 PM gps.NMEA.NMEAUtils.ChecksumUtilities getCRC
INFORMATION: Created CRC (5C)  for Sentence: $GPGGA,183407,5348.65,N,1017.5,W,8.0,10,3.4,16.6,M,0,M,,
Dez 26, 2016 6:34:08 PM gps.NMEA.NMEAUtils.ChecksumUtilities getCRC
INFORMATION: Created CRC (7E)  for Sentence: $GPGGA,183408,5348.79,N,1017.57,E,8.0,05,3.5,16.6,M,0,M,,
Dez 26, 2016 6:34:09 PM gps.NMEA.NMEAUtils.ChecksumUtilities getCRC
INFORMATION: Created CRC (76)  for Sentence: $GPGGA,183409,5348.94,N,1017.68,E,8.0,03,3.4,16.7,M,0,M,,
Dez 26, 2016 6:34:09 PM gps.NMEA.NMEAUtils.ChecksumUtilities getCRC
INFORMATION: Created CRC (43)  for Sentence: $GPRMC,183409,A,5348.94,N,1017.68,E,010.3,17.0,261216,,S
Dez 26, 2016 6:34:10 PM gps.NMEA.NMEAUtils.ChecksumUtilities getCRC
INFORMATION: Created CRC (4B)  for Sentence: $GPGGA,183410,5349.0,N,1017.72,E,8.0,10,3.5,16.6,M,0,M,,
Dez 26, 2016 6:34:11 PM gps.NMEA.NMEAUtils.ChecksumUtilities getCRC
INFORMATION: Created CRC (74)  for Sentence: $GPGGA,183411,5349.18,N,1017.76,E,8.0,06,3.4,16.3,M,0,M,,
Dez 26, 2016 6:34:11 PM gps.NMEA.NMEAUtils.ChecksumUtilities getCRC
INFORMATION: Created CRC (43)  for Sentence: $GPRMC,183411,A,5349.29,N,1017.77,E,010.2,61.0,261216,,S
Dez 26, 2016 6:34:12 PM gps.NMEA.NMEAUtils.ChecksumUtilities getCRC
INFORMATION: Created CRC (42)  for Sentence: $GPGGA,183412,5349.4,N,1017.92,E,8.0,07,3.4,16.0,M,0,M,,
Dez 26, 2016 6:34:13 PM gps.NMEA.NMEAUtils.ChecksumUtilities getCRC
INFORMATION: Created CRC (6B)  for Sentence: $GPGGA,183413,5349.58,S,1018.16,E,8.0,09,3.4,16.1,M,0,M,,
Dez 26, 2016 6:34:14 PM gps.NMEA.NMEAUtils.ChecksumUtilities getCRC
INFORMATION: Created CRC (48)  for Sentence: $GPRMC,183414,A,5349.68,N,1018.25,E,010.2,40.0,261216,,S
Dez 26, 2016 6:34:14 PM gps.NMEA.NMEAUtils.ChecksumUtilities getCRC
INFORMATION: Created CRC (6A)  for Sentence: $GPGGA,183414,5349.76,S,1018.35,E,8.0,03,3.5,16.1,M,0,M,,
Dez 26, 2016 6:34:15 PM gps.NMEA.NMEAUtils.ChecksumUtilities getCRC
INFORMATION: Created CRC (68)  for Sentence: $GPGGA,183415,5349.97,S,1018.39,E,8.0,07,3.3,16.3,M,0,M,,
Dez 26, 2016 6:34:16 PM gps.NMEA.NMEAUtils.ChecksumUtilities getCRC
INFORMATION: Created CRC (71)  for Sentence: $GPGGA,183416,5350.12,S,1018.55,W,8.0,10,3.2,16.3,M,0,M,,
Dez 26, 2016 6:34:16 PM gps.NMEA.NMEAUtils.ChecksumUtilities getCRC
INFORMATION: Created CRC (70)  for Sentence: $GPRMC,183416,A,5350.12,S,1018.55,W,010.3,288.0,261216,,S
Dez 26, 2016 6:34:17 PM gps.NMEA.NMEAUtils.ChecksumUtilities getCRC
INFORMATION: Created CRC (76)  for Sentence: $GPGGA,183417,5350.23,S,1018.63,W,8.0,10,3.3,16.3,M,0,M,,
