Jan 01, 2017 9:37:35 PM gps.NMEA.utils.ChecksumUtilities getCRC
INFORMATION: Created CRC (59)  for Sentence: $GPGGA,213735,5333.57,S,1001.49,E,8.0,10,2.1,150.1,M,0,M,,
Jan 01, 2017 9:37:35 PM gps.NMEA.utils.ChecksumUtilities getCRC
INFORMATION: Created CRC (59)  for Sentence: $GPGGA,213735,5333.57,S,1001.49,E,8.0,10,2.1,150.1,M,0,M,,
Jan 01, 2017 9:37:35 PM gps.NMEA.utils.ChecksumUtilities isChecksumValid
INFORMATION: Sentence: $GPGGA,213735,5333.57,S,1001.49,E,8.0,10,2.1,150.1,M,0,M,,*59 is VALID
Jan 01, 2017 9:37:36 PM gps.NMEA.utils.ChecksumUtilities getCRC
INFORMATION: Created CRC (75)  for Sentence: $GPRMC,213736,A,5333.75,S,1001.56,W,010.0,241.0,010116,,S
Jan 01, 2017 9:37:36 PM gps.NMEA.utils.ChecksumUtilities getCRC
INFORMATION: Created CRC (75)  for Sentence: $GPRMC,213736,A,5333.75,S,1001.56,W,010.0,241.0,010116,,S
Jan 01, 2017 9:37:36 PM gps.NMEA.utils.ChecksumUtilities isChecksumValid
INFORMATION: Sentence: $GPRMC,213736,A,5333.75,S,1001.56,W,010.0,241.0,010116,,S*75 is VALID
Jan 01, 2017 9:37:36 PM gps.NMEA.utils.ChecksumUtilities getCRC
INFORMATION: Created CRC (44)  for Sentence: $GPGGA,213736,5333.75,S,1001.56,W,8.0,01,2.0,150.2,M,0,M,,
Jan 01, 2017 9:37:36 PM gps.NMEA.utils.ChecksumUtilities getCRC
INFORMATION: Created CRC (44)  for Sentence: $GPGGA,213736,5333.75,S,1001.56,W,8.0,01,2.0,150.2,M,0,M,,
Jan 01, 2017 9:37:36 PM gps.NMEA.utils.ChecksumUtilities isChecksumValid
INFORMATION: Sentence: $GPGGA,213736,5333.75,S,1001.56,W,8.0,01,2.0,150.2,M,0,M,,*44 is VALID
Jan 01, 2017 9:37:37 PM gps.NMEA.utils.ChecksumUtilities getCRC
INFORMATION: Created CRC (6E)  for Sentence: $GPGGA,213737,5333.92,S,1001.7,E,8.0,07,2.0,149.8,M,0,M,,
Jan 01, 2017 9:37:37 PM gps.NMEA.utils.ChecksumUtilities getCRC
INFORMATION: Created CRC (6E)  for Sentence: $GPGGA,213737,5333.92,S,1001.7,E,8.0,07,2.0,149.8,M,0,M,,
Jan 01, 2017 9:37:37 PM gps.NMEA.utils.ChecksumUtilities isChecksumValid
INFORMATION: Sentence: $GPGGA,213737,5333.92,S,1001.7,E,8.0,07,2.0,149.8,M,0,M,,*6E is VALID
Jan 01, 2017 9:37:37 PM gps.NMEA.utils.ChecksumUtilities getCRC
INFORMATION: Created CRC (59)  for Sentence: $GPRMC,213737,A,5333.92,S,1001.7,E,010.1,150.0,010116,,S
Jan 01, 2017 9:37:37 PM gps.NMEA.utils.ChecksumUtilities getCRC
INFORMATION: Created CRC (59)  for Sentence: $GPRMC,213737,A,5333.92,S,1001.7,E,010.1,150.0,010116,,S
Jan 01, 2017 9:37:37 PM gps.NMEA.utils.ChecksumUtilities isChecksumValid
INFORMATION: Sentence: $GPRMC,213737,A,5333.92,S,1001.7,E,010.1,150.0,010116,,S*59 is VALID
Jan 01, 2017 9:37:38 PM gps.NMEA.utils.ChecksumUtilities getCRC
INFORMATION: Created CRC (6C)  for Sentence: $GPGGA,213738,5334.0,N,1001.83,W,8.0,04,2.1,150.0,M,0,M,,
Jan 01, 2017 9:37:38 PM gps.NMEA.utils.ChecksumUtilities getCRC
INFORMATION: Created CRC (6C)  for Sentence: $GPGGA,213738,5334.0,N,1001.83,W,8.0,04,2.1,150.0,M,0,M,,
Jan 01, 2017 9:37:38 PM gps.NMEA.utils.ChecksumUtilities isChecksumValid
INFORMATION: Sentence: $GPGGA,213738,5334.0,N,1001.83,W,8.0,04,2.1,150.0,M,0,M,,*6C is VALID
Jan 01, 2017 9:37:39 PM gps.NMEA.utils.ChecksumUtilities getCRC
INFORMATION: Created CRC (73)  for Sentence: $GPRMC,213739,A,5334.13,S,1001.89,W,010.0,290.0,010116,,S
Jan 01, 2017 9:37:39 PM gps.NMEA.utils.ChecksumUtilities getCRC
INFORMATION: Created CRC (73)  for Sentence: $GPRMC,213739,A,5334.13,S,1001.89,W,010.0,290.0,010116,,S
Jan 01, 2017 9:37:39 PM gps.NMEA.utils.ChecksumUtilities isChecksumValid
INFORMATION: Sentence: $GPRMC,213739,A,5334.13,S,1001.89,W,010.0,290.0,010116,,S*73 is VALID
Jan 01, 2017 9:37:39 PM gps.NMEA.utils.ChecksumUtilities getCRC
INFORMATION: Created CRC (53)  for Sentence: $GPGGA,213739,5334.25,N,1001.98,W,8.0,04,2.2,149.8,M,0,M,,
Jan 01, 2017 9:37:39 PM gps.NMEA.utils.ChecksumUtilities getCRC
INFORMATION: Created CRC (53)  for Sentence: $GPGGA,213739,5334.25,N,1001.98,W,8.0,04,2.2,149.8,M,0,M,,
Jan 01, 2017 9:37:39 PM gps.NMEA.utils.ChecksumUtilities isChecksumValid
INFORMATION: Sentence: $GPGGA,213739,5334.25,N,1001.98,W,8.0,04,2.2,149.8,M,0,M,,*53 is VALID
Jan 01, 2017 9:37:40 PM gps.NMEA.utils.ChecksumUtilities getCRC
INFORMATION: Created CRC (6C)  for Sentence: $GPRMC,213740,A,5334.29,N,1002.03,W,010.0,395.0,010116,,S
Jan 01, 2017 9:37:40 PM gps.NMEA.utils.ChecksumUtilities getCRC
INFORMATION: Created CRC (6C)  for Sentence: $GPRMC,213740,A,5334.29,N,1002.03,W,010.0,395.0,010116,,S
Jan 01, 2017 9:37:40 PM gps.NMEA.utils.ChecksumUtilities isChecksumValid
INFORMATION: Sentence: $GPRMC,213740,A,5334.29,N,1002.03,W,010.0,395.0,010116,,S*6C is VALID
Jan 01, 2017 9:37:40 PM gps.NMEA.utils.ChecksumUtilities getCRC
INFORMATION: Created CRC (54)  for Sentence: $GPGGA,213740,5334.33,N,1002.05,W,8.0,10,2.1,149.7,M,0,M,,
Jan 01, 2017 9:37:40 PM gps.NMEA.utils.ChecksumUtilities getCRC
INFORMATION: Created CRC (54)  for Sentence: $GPGGA,213740,5334.33,N,1002.05,W,8.0,10,2.1,149.7,M,0,M,,
Jan 01, 2017 9:37:40 PM gps.NMEA.utils.ChecksumUtilities isChecksumValid
INFORMATION: Sentence: $GPGGA,213740,5334.33,N,1002.05,W,8.0,10,2.1,149.7,M,0,M,,*54 is VALID
