Dez 29, 2016 12:41:28 AM gps.NMEA.utils.ChecksumUtilities getCRC
INFORMATION: Created CRC (58)  for Sentence: $GPGGA,004128,5333.55,S,1001.51,E,8.0,04,2.1,149.8,M,0,M,,
Dez 29, 2016 12:41:28 AM gps.NMEA.utils.ChecksumUtilities getCRC
INFORMATION: Created CRC (58)  for Sentence: $GPGGA,004128,5333.55,S,1001.51,E,8.0,04,2.1,149.8,M,0,M,,
Dez 29, 2016 12:41:28 AM gps.NMEA.utils.ChecksumUtilities isChecksumValid
INFORMATION: Sentence: $GPGGA,004128,5333.55,S,1001.51,E,8.0,04,2.1,149.8,M,0,M,,*58 is valid
Dez 29, 2016 12:41:29 AM gps.NMEA.utils.ChecksumUtilities getCRC
INFORMATION: Created CRC (66)  for Sentence: $GPRMC,004129,A,5333.67,S,1001.58,E,010.1,169.0,291216,,S
Dez 29, 2016 12:41:29 AM gps.NMEA.utils.ChecksumUtilities getCRC
INFORMATION: Created CRC (66)  for Sentence: $GPRMC,004129,A,5333.67,S,1001.58,E,010.1,169.0,291216,,S
Dez 29, 2016 12:41:29 AM gps.NMEA.utils.ChecksumUtilities isChecksumValid
INFORMATION: Sentence: $GPRMC,004129,A,5333.67,S,1001.58,E,010.1,169.0,291216,,S*66 is valid
Dez 29, 2016 12:41:29 AM gps.NMEA.utils.ChecksumUtilities getCRC
INFORMATION: Created CRC (55)  for Sentence: $GPGGA,004129,5333.67,S,1001.58,E,8.0,11,2.0,149.9,M,0,M,,
Dez 29, 2016 12:41:29 AM gps.NMEA.utils.ChecksumUtilities getCRC
INFORMATION: Created CRC (55)  for Sentence: $GPGGA,004129,5333.67,S,1001.58,E,8.0,11,2.0,149.9,M,0,M,,
Dez 29, 2016 12:41:29 AM gps.NMEA.utils.ChecksumUtilities isChecksumValid
INFORMATION: Sentence: $GPGGA,004129,5333.67,S,1001.58,E,8.0,11,2.0,149.9,M,0,M,,*55 is valid
Dez 29, 2016 12:41:30 AM gps.NMEA.utils.ChecksumUtilities getCRC
INFORMATION: Created CRC (6E)  for Sentence: $GPGGA,004130,5333.74,S,1001.8,E,8.0,10,1.9,149.6,M,0,M,,
Dez 29, 2016 12:41:30 AM gps.NMEA.utils.ChecksumUtilities getCRC
INFORMATION: Created CRC (6E)  for Sentence: $GPGGA,004130,5333.74,S,1001.8,E,8.0,10,1.9,149.6,M,0,M,,
Dez 29, 2016 12:41:30 AM gps.NMEA.utils.ChecksumUtilities isChecksumValid
INFORMATION: Sentence: $GPGGA,004130,5333.74,S,1001.8,E,8.0,10,1.9,149.6,M,0,M,,*6E is valid
Dez 29, 2016 12:41:31 AM gps.NMEA.utils.ChecksumUtilities getCRC
INFORMATION: Created CRC (54)  for Sentence: $GPRMC,004131,A,5333.74,S,1001.8,E,010.0,157.0,291216,,S
Dez 29, 2016 12:41:31 AM gps.NMEA.utils.ChecksumUtilities getCRC
INFORMATION: Created CRC (54)  for Sentence: $GPRMC,004131,A,5333.74,S,1001.8,E,010.0,157.0,291216,,S
Dez 29, 2016 12:41:31 AM gps.NMEA.utils.ChecksumUtilities isChecksumValid
INFORMATION: Sentence: $GPRMC,004131,A,5333.74,S,1001.8,E,010.0,157.0,291216,,S*54 is valid
Dez 29, 2016 12:41:31 AM gps.NMEA.utils.ChecksumUtilities getCRC
INFORMATION: Created CRC (52)  for Sentence: $GPGGA,004131,5333.94,S,1002.06,E,8.0,10,1.8,149.9,M,0,M,,
Dez 29, 2016 12:41:31 AM gps.NMEA.utils.ChecksumUtilities getCRC
INFORMATION: Created CRC (52)  for Sentence: $GPGGA,004131,5333.94,S,1002.06,E,8.0,10,1.8,149.9,M,0,M,,
Dez 29, 2016 12:41:31 AM gps.NMEA.utils.ChecksumUtilities isChecksumValid
INFORMATION: Sentence: $GPGGA,004131,5333.94,S,1002.06,E,8.0,10,1.8,149.9,M,0,M,,*52 is valid
Dez 29, 2016 12:41:32 AM gps.NMEA.utils.ChecksumUtilities getCRC
INFORMATION: Created CRC (4E)  for Sentence: $GPRMC,004132,A,5334.07,N,1002.12,E,009.9,58.0,291216,,S
Dez 29, 2016 12:41:32 AM gps.NMEA.utils.ChecksumUtilities getCRC
INFORMATION: Created CRC (4E)  for Sentence: $GPRMC,004132,A,5334.07,N,1002.12,E,009.9,58.0,291216,,S
Dez 29, 2016 12:41:32 AM gps.NMEA.utils.ChecksumUtilities isChecksumValid
INFORMATION: Sentence: $GPRMC,004132,A,5334.07,N,1002.12,E,009.9,58.0,291216,,S*4E is valid
Dez 29, 2016 12:41:32 AM gps.NMEA.utils.ChecksumUtilities getCRC
INFORMATION: Created CRC (55)  for Sentence: $GPGGA,004132,5334.22,N,1002.17,W,8.0,04,2.0,149.6,M,0,M,,
Dez 29, 2016 12:41:32 AM gps.NMEA.utils.ChecksumUtilities getCRC
INFORMATION: Created CRC (55)  for Sentence: $GPGGA,004132,5334.22,N,1002.17,W,8.0,04,2.0,149.6,M,0,M,,
Dez 29, 2016 12:41:32 AM gps.NMEA.utils.ChecksumUtilities isChecksumValid
INFORMATION: Sentence: $GPGGA,004132,5334.22,N,1002.17,W,8.0,04,2.0,149.6,M,0,M,,*55 is valid
Dez 29, 2016 12:41:33 AM gps.NMEA.utils.ChecksumUtilities getCRC
INFORMATION: Created CRC (52)  for Sentence: $GPGGA,004133,5334.45,N,1002.29,W,8.0,10,2.1,150.0,M,0,M,,
Dez 29, 2016 12:41:33 AM gps.NMEA.utils.ChecksumUtilities getCRC
INFORMATION: Created CRC (52)  for Sentence: $GPGGA,004133,5334.45,N,1002.29,W,8.0,10,2.1,150.0,M,0,M,,
Dez 29, 2016 12:41:33 AM gps.NMEA.utils.ChecksumUtilities isChecksumValid
INFORMATION: Sentence: $GPGGA,004133,5334.45,N,1002.29,W,8.0,10,2.1,150.0,M,0,M,,*52 is valid
Dez 29, 2016 12:41:34 AM gps.NMEA.utils.ChecksumUtilities getCRC
INFORMATION: Created CRC (60)  for Sentence: $GPRMC,004134,A,5334.45,N,1002.29,W,010.1,328.0,291216,,S
Dez 29, 2016 12:41:34 AM gps.NMEA.utils.ChecksumUtilities getCRC
INFORMATION: Created CRC (60)  for Sentence: $GPRMC,004134,A,5334.45,N,1002.29,W,010.1,328.0,291216,,S
Dez 29, 2016 12:41:34 AM gps.NMEA.utils.ChecksumUtilities isChecksumValid
INFORMATION: Sentence: $GPRMC,004134,A,5334.45,N,1002.29,W,010.1,328.0,291216,,S*60 is valid
Dez 29, 2016 12:41:34 AM gps.NMEA.utils.ChecksumUtilities getCRC
INFORMATION: Created CRC (46)  for Sentence: $GPGGA,004134,5334.57,N,1002.45,E,8.0,10,1.9,150.3,M,0,M,,
Dez 29, 2016 12:41:34 AM gps.NMEA.utils.ChecksumUtilities getCRC
INFORMATION: Created CRC (46)  for Sentence: $GPGGA,004134,5334.57,N,1002.45,E,8.0,10,1.9,150.3,M,0,M,,
Dez 29, 2016 12:41:34 AM gps.NMEA.utils.ChecksumUtilities isChecksumValid
INFORMATION: Sentence: $GPGGA,004134,5334.57,N,1002.45,E,8.0,10,1.9,150.3,M,0,M,,*46 is valid
Dez 29, 2016 12:41:35 AM gps.NMEA.utils.ChecksumUtilities getCRC
INFORMATION: Created CRC (4A)  for Sentence: $GPRMC,004135,A,5334.71,N,1002.56,E,010.1,78.0,291216,,S
Dez 29, 2016 12:41:35 AM gps.NMEA.utils.ChecksumUtilities getCRC
INFORMATION: Created CRC (4A)  for Sentence: $GPRMC,004135,A,5334.71,N,1002.56,E,010.1,78.0,291216,,S
Dez 29, 2016 12:41:35 AM gps.NMEA.utils.ChecksumUtilities isChecksumValid
INFORMATION: Sentence: $GPRMC,004135,A,5334.71,N,1002.56,E,010.1,78.0,291216,,S*4A is valid
Dez 29, 2016 12:41:35 AM gps.NMEA.utils.ChecksumUtilities getCRC
INFORMATION: Created CRC (55)  for Sentence: $GPGGA,004135,5334.78,N,1002.65,W,8.0,09,1.9,150.4,M,0,M,,
Dez 29, 2016 12:41:35 AM gps.NMEA.utils.ChecksumUtilities getCRC
INFORMATION: Created CRC (55)  for Sentence: $GPGGA,004135,5334.78,N,1002.65,W,8.0,09,1.9,150.4,M,0,M,,
Dez 29, 2016 12:41:35 AM gps.NMEA.utils.ChecksumUtilities isChecksumValid
INFORMATION: Sentence: $GPGGA,004135,5334.78,N,1002.65,W,8.0,09,1.9,150.4,M,0,M,,*55 is valid
Dez 29, 2016 12:41:36 AM gps.NMEA.utils.ChecksumUtilities getCRC
INFORMATION: Created CRC (5E)  for Sentence: $GPGGA,004136,5334.79,N,1002.74,W,8.0,00,1.9,150.4,M,0,M,,
Dez 29, 2016 12:41:36 AM gps.NMEA.utils.ChecksumUtilities getCRC
INFORMATION: Created CRC (5E)  for Sentence: $GPGGA,004136,5334.79,N,1002.74,W,8.0,00,1.9,150.4,M,0,M,,
Dez 29, 2016 12:41:36 AM gps.NMEA.utils.ChecksumUtilities isChecksumValid
INFORMATION: Sentence: $GPGGA,004136,5334.79,N,1002.74,W,8.0,00,1.9,150.4,M,0,M,,*5E is valid
Dez 29, 2016 12:41:37 AM gps.NMEA.utils.ChecksumUtilities getCRC
INFORMATION: Created CRC (6E)  for Sentence: $GPRMC,004137,A,5334.79,N,1002.74,W,010.1,311.0,291216,,S
Dez 29, 2016 12:41:37 AM gps.NMEA.utils.ChecksumUtilities getCRC
INFORMATION: Created CRC (6E)  for Sentence: $GPRMC,004137,A,5334.79,N,1002.74,W,010.1,311.0,291216,,S
Dez 29, 2016 12:41:37 AM gps.NMEA.utils.ChecksumUtilities isChecksumValid
INFORMATION: Sentence: $GPRMC,004137,A,5334.79,N,1002.74,W,010.1,311.0,291216,,S*6E is valid
Dez 29, 2016 12:41:37 AM gps.NMEA.utils.ChecksumUtilities getCRC
INFORMATION: Created CRC (58)  for Sentence: $GPGGA,004137,5335.05,S,1002.93,E,8.0,00,2.0,150.5,M,0,M,,
Dez 29, 2016 12:41:37 AM gps.NMEA.utils.ChecksumUtilities getCRC
INFORMATION: Created CRC (58)  for Sentence: $GPGGA,004137,5335.05,S,1002.93,E,8.0,00,2.0,150.5,M,0,M,,
Dez 29, 2016 12:41:37 AM gps.NMEA.utils.ChecksumUtilities isChecksumValid
INFORMATION: Sentence: $GPGGA,004137,5335.05,S,1002.93,E,8.0,00,2.0,150.5,M,0,M,,*58 is valid
Dez 29, 2016 12:41:38 AM gps.NMEA.utils.ChecksumUtilities getCRC
INFORMATION: Created CRC (60)  for Sentence: $GPRMC,004138,A,5335.15,S,1003.07,E,010.1,113.0,291216,,S
Dez 29, 2016 12:41:38 AM gps.NMEA.utils.ChecksumUtilities getCRC
INFORMATION: Created CRC (60)  for Sentence: $GPRMC,004138,A,5335.15,S,1003.07,E,010.1,113.0,291216,,S
Dez 29, 2016 12:41:38 AM gps.NMEA.utils.ChecksumUtilities isChecksumValid
INFORMATION: Sentence: $GPRMC,004138,A,5335.15,S,1003.07,E,010.1,113.0,291216,,S*60 is valid
Dez 29, 2016 12:41:38 AM gps.NMEA.utils.ChecksumUtilities getCRC
INFORMATION: Created CRC (6F)  for Sentence: $GPGGA,004138,5335.26,S,1003.2,E,8.0,11,2.1,150.4,M,0,M,,
Dez 29, 2016 12:41:38 AM gps.NMEA.utils.ChecksumUtilities getCRC
INFORMATION: Created CRC (6F)  for Sentence: $GPGGA,004138,5335.26,S,1003.2,E,8.0,11,2.1,150.4,M,0,M,,
Dez 29, 2016 12:41:38 AM gps.NMEA.utils.ChecksumUtilities isChecksumValid
INFORMATION: Sentence: $GPGGA,004138,5335.26,S,1003.2,E,8.0,11,2.1,150.4,M,0,M,,*6F is valid
