Dez 26, 2016 11:14:19 PM gps.NMEA.utils.ChecksumUtilities getCRC
INFORMATION: Created CRC (69)  for Sentence: $GPGGA,231419,5333.51,S,1001.52,E,8.0,11,2.0,15.0,M,0,M,,
Dez 26, 2016 11:14:20 PM gps.NMEA.utils.ChecksumUtilities getCRC
INFORMATION: Created CRC (67)  for Sentence: $GPRMC,231420,A,5333.68,S,1001.75,E,010.1,118.0,261216,,S
Dez 26, 2016 11:14:20 PM gps.NMEA.utils.ChecksumUtilities getCRC
INFORMATION: Created CRC (67)  for Sentence: $GPGGA,231420,5333.68,S,1001.75,E,8.0,02,2.0,14.8,M,0,M,,
Dez 26, 2016 11:14:21 PM gps.NMEA.utils.ChecksumUtilities getCRC
INFORMATION: Created CRC (7B)  for Sentence: $GPGGA,231421,5333.85,S,1001.91,W,8.0,11,1.9,14.6,M,0,M,,
Dez 26, 2016 11:14:21 PM gps.NMEA.utils.ChecksumUtilities getCRC
INFORMATION: Created CRC (70)  for Sentence: $GPRMC,231421,A,5333.85,S,1001.91,W,010.1,216.0,261216,,S
Dez 26, 2016 11:14:22 PM gps.NMEA.utils.ChecksumUtilities getCRC
INFORMATION: Created CRC (7A)  for Sentence: $GPGGA,231422,5333.94,S,1002.11,W,8.0,00,2.0,14.5,M,0,M,,
Dez 26, 2016 11:14:23 PM gps.NMEA.utils.ChecksumUtilities getCRC
INFORMATION: Created CRC (65)  for Sentence: $GPRMC,231423,A,5333.99,S,1002.18,E,010.0,196.0,261216,,S
Dez 26, 2016 11:14:23 PM gps.NMEA.utils.ChecksumUtilities getCRC
INFORMATION: Created CRC (47)  for Sentence: $GPGGA,231423,5334.01,S,1002.3,W,8.0,03,2.1,14.3,M,0,M,,
Dez 26, 2016 11:14:24 PM gps.NMEA.utils.ChecksumUtilities getCRC
INFORMATION: Created CRC (42)  for Sentence: $GPGGA,231424,5334.2,S,1002.37,W,8.0,10,2.1,14.7,M,0,M,,
Dez 26, 2016 11:14:24 PM gps.NMEA.utils.ChecksumUtilities getCRC
INFORMATION: Created CRC (43)  for Sentence: $GPRMC,231424,A,5334.2,S,1002.37,W,010.0,261.0,261216,,S
Dez 26, 2016 11:14:25 PM gps.NMEA.utils.ChecksumUtilities getCRC
INFORMATION: Created CRC (4A)  for Sentence: $GPGGA,231425,5334.37,S,1002.5,W,8.0,11,2.1,14.8,M,0,M,,
Dez 26, 2016 11:14:26 PM gps.NMEA.utils.ChecksumUtilities getCRC
INFORMATION: Created CRC (65)  for Sentence: $GPRMC,231426,A,5334.45,N,1002.59,W,010.0,340.0,261216,,S
Dez 26, 2016 11:14:26 PM gps.NMEA.utils.ChecksumUtilities getCRC
INFORMATION: Created CRC (6C)  for Sentence: $GPGGA,231426,5334.47,N,1002.69,W,8.0,05,2.0,14.9,M,0,M,,
Dez 26, 2016 11:14:27 PM gps.NMEA.utils.ChecksumUtilities getCRC
INFORMATION: Created CRC (7E)  for Sentence: $GPGGA,231427,5334.52,N,1002.87,E,8.0,08,2.1,15.1,M,0,M,,
Dez 26, 2016 11:14:27 PM gps.NMEA.utils.ChecksumUtilities getCRC
INFORMATION: Created CRC (4E)  for Sentence: $GPRMC,231427,A,5334.52,N,1002.87,E,010.1,83.0,261216,,S
Dez 26, 2016 11:14:28 PM gps.NMEA.utils.ChecksumUtilities getCRC
INFORMATION: Created CRC (6F)  for Sentence: $GPGGA,231428,5334.66,N,1002.96,W,8.0,00,2.1,15.2,M,0,M,,
Dez 26, 2016 11:14:28 PM gps.NMEA.utils.ChecksumUtilities getCRC
INFORMATION: Created CRC (71)  for Sentence: $GPRMC,231428,A,5334.67,S,1003.09,W,010.1,243.0,261216,,S
Dez 26, 2016 11:14:29 PM gps.NMEA.utils.ChecksumUtilities getCRC
INFORMATION: Created CRC (5D)  for Sentence: $GPGGA,231429,5334.8,N,1003.21,W,8.0,03,2.0,15.6,M,0,M,,
Dez 26, 2016 11:14:30 PM gps.NMEA.utils.ChecksumUtilities getCRC
INFORMATION: Created CRC (66)  for Sentence: $GPRMC,231430,A,5334.83,N,1003.25,W,010.1,398.0,261216,,S
Dez 26, 2016 11:14:30 PM gps.NMEA.utils.ChecksumUtilities getCRC
INFORMATION: Created CRC (79)  for Sentence: $GPGGA,231430,5334.84,N,1003.34,E,8.0,07,1.9,15.6,M,0,M,,
Dez 26, 2016 11:14:31 PM gps.NMEA.utils.ChecksumUtilities getCRC
INFORMATION: Created CRC (76)  for Sentence: $GPGGA,231431,5334.99,N,1003.56,E,8.0,10,1.9,15.6,M,0,M,,
Dez 26, 2016 11:14:31 PM gps.NMEA.utils.ChecksumUtilities getCRC
INFORMATION: Created CRC (4B)  for Sentence: $GPRMC,231431,A,5334.99,N,1003.56,E,010.1,30.0,261216,,S
Dez 26, 2016 11:14:32 PM gps.NMEA.utils.ChecksumUtilities getCRC
INFORMATION: Created CRC (65)  for Sentence: $GPGGA,231432,5335.18,S,1003.68,E,8.0,09,1.8,15.7,M,0,M,,
Dez 26, 2016 11:14:33 PM gps.NMEA.utils.ChecksumUtilities getCRC
INFORMATION: Created CRC (61)  for Sentence: $GPRMC,231433,A,5335.23,S,1003.77,E,010.1,140.0,261216,,S
Dez 26, 2016 11:14:33 PM gps.NMEA.utils.ChecksumUtilities getCRC
INFORMATION: Created CRC (73)  for Sentence: $GPGGA,231433,5335.36,N,1003.88,E,8.0,11,1.9,15.7,M,0,M,,
Dez 26, 2016 11:14:34 PM gps.NMEA.utils.ChecksumUtilities getCRC
INFORMATION: Created CRC (63)  for Sentence: $GPGGA,231434,5335.47,N,1004.06,W,8.0,03,1.9,15.6,M,0,M,,
Dez 26, 2016 11:14:34 PM gps.NMEA.utils.ChecksumUtilities getCRC
INFORMATION: Created CRC (62)  for Sentence: $GPRMC,231434,A,5335.47,N,1004.06,W,010.1,397.0,261216,,S
Dez 26, 2016 11:14:35 PM gps.NMEA.utils.ChecksumUtilities getCRC
INFORMATION: Created CRC (69)  for Sentence: $GPGGA,231435,5335.66,S,1004.24,E,8.0,06,1.8,15.5,M,0,M,,
Dez 26, 2016 11:14:36 PM gps.NMEA.utils.ChecksumUtilities getCRC
INFORMATION: Created CRC (6C)  for Sentence: $GPRMC,231436,A,5335.72,S,1004.28,E,010.1,141.0,261216,,S
Dez 26, 2016 11:14:36 PM gps.NMEA.utils.ChecksumUtilities getCRC
INFORMATION: Created CRC (62)  for Sentence: $GPGGA,231436,5335.84,S,1004.33,E,8.0,04,1.8,15.5,M,0,M,,
Dez 26, 2016 11:14:37 PM gps.NMEA.utils.ChecksumUtilities getCRC
INFORMATION: Created CRC (6D)  for Sentence: $GPGGA,231437,5336.07,S,1004.44,E,8.0,05,1.9,15.3,M,0,M,,
Dez 26, 2016 11:14:37 PM gps.NMEA.utils.ChecksumUtilities getCRC
INFORMATION: Created CRC (62)  for Sentence: $GPRMC,231437,A,5336.07,S,1004.44,E,010.1,123.0,261216,,S
Dez 26, 2016 11:14:38 PM gps.NMEA.utils.ChecksumUtilities getCRC
INFORMATION: Created CRC (6C)  for Sentence: $GPGGA,231438,5336.19,S,1004.58,E,8.0,06,2.0,15.6,M,0,M,,
Dez 26, 2016 11:14:38 PM gps.NMEA.utils.ChecksumUtilities getCRC
INFORMATION: Created CRC (6B)  for Sentence: $GPRMC,231438,A,5336.19,S,1004.58,E,010.0,115.0,261216,,S
Dez 26, 2016 11:14:39 PM gps.NMEA.utils.ChecksumUtilities getCRC
INFORMATION: Created CRC (45)  for Sentence: $GPGGA,231439,5336.39,S,1004.7,W,8.0,06,2.0,15.4,M,0,M,,
Dez 26, 2016 11:14:40 PM gps.NMEA.utils.ChecksumUtilities getCRC
INFORMATION: Created CRC (47)  for Sentence: $GPRMC,231440,A,5336.4,S,1004.74,W,010.1,227.0,261216,,S
Dez 26, 2016 11:14:40 PM gps.NMEA.utils.ChecksumUtilities getCRC
INFORMATION: Created CRC (6B)  for Sentence: $GPGGA,231440,5336.43,S,1004.85,E,8.0,03,2.0,15.4,M,0,M,,
Dez 26, 2016 11:14:41 PM gps.NMEA.utils.ChecksumUtilities getCRC
INFORMATION: Created CRC (7E)  for Sentence: $GPGGA,231441,5336.43,S,1004.96,W,8.0,08,1.9,15.1,M,0,M,,
Dez 26, 2016 11:14:41 PM gps.NMEA.utils.ChecksumUtilities getCRC
INFORMATION: Created CRC (78)  for Sentence: $GPRMC,231441,A,5336.43,S,1004.96,W,010.0,214.0,261216,,S
Dez 26, 2016 11:14:42 PM gps.NMEA.utils.ChecksumUtilities getCRC
INFORMATION: Created CRC (59)  for Sentence: $GPGGA,231442,5336.59,S,1005.0,E,8.0,02,1.8,14.8,M,0,M,,
Dez 26, 2016 11:14:43 PM gps.NMEA.utils.ChecksumUtilities getCRC
INFORMATION: Created CRC (52)  for Sentence: $GPRMC,231443,A,5336.63,S,1005.0,E,010.1,154.0,261216,,S
Dez 26, 2016 11:14:43 PM gps.NMEA.utils.ChecksumUtilities getCRC
INFORMATION: Created CRC (74)  for Sentence: $GPGGA,231443,5336.67,N,1005.09,E,8.0,11,1.7,15.1,M,0,M,,
Dez 26, 2016 11:14:44 PM gps.NMEA.utils.ChecksumUtilities getCRC
INFORMATION: Created CRC (7C)  for Sentence: $GPGGA,231444,5336.79,N,1005.18,E,8.0,06,1.8,14.9,M,0,M,,
Dez 26, 2016 11:14:44 PM gps.NMEA.utils.ChecksumUtilities getCRC
INFORMATION: Created CRC (47)  for Sentence: $GPRMC,231444,A,5336.79,N,1005.18,E,010.1,49.0,261216,,S
Dez 26, 2016 11:14:45 PM gps.NMEA.utils.ChecksumUtilities getCRC
INFORMATION: Created CRC (70)  for Sentence: $GPGGA,231445,5336.88,N,1005.43,E,8.0,03,1.8,15.0,M,0,M,,
Dez 26, 2016 11:14:45 PM gps.NMEA.utils.ChecksumUtilities getCRC
INFORMATION: Created CRC (4A)  for Sentence: $GPRMC,231445,A,5337.01,N,1005.53,E,010.1,77.0,261216,,S
Dez 26, 2016 11:14:46 PM gps.NMEA.utils.ChecksumUtilities getCRC
INFORMATION: Created CRC (55)  for Sentence: $GPGGA,231446,5337.04,S,1005.6,E,8.0,05,1.9,14.9,M,0,M,,
Dez 26, 2016 11:14:47 PM gps.NMEA.utils.ChecksumUtilities getCRC
INFORMATION: Created CRC (5F)  for Sentence: $GPRMC,231447,A,5337.16,S,1005.6,E,010.0,195.0,261216,,S
Dez 26, 2016 11:14:47 PM gps.NMEA.utils.ChecksumUtilities getCRC
INFORMATION: Created CRC (74)  for Sentence: $GPGGA,231447,5337.29,N,1005.65,E,8.0,09,1.8,15.2,M,0,M,,
Dez 26, 2016 11:14:48 PM gps.NMEA.utils.ChecksumUtilities getCRC
INFORMATION: Created CRC (73)  for Sentence: $GPGGA,231448,5337.36,N,1005.77,E,8.0,00,1.7,15.1,M,0,M,,
Dez 26, 2016 11:14:48 PM gps.NMEA.utils.ChecksumUtilities getCRC
INFORMATION: Created CRC (40)  for Sentence: $GPRMC,231448,A,5337.36,N,1005.77,E,010.0,51.0,261216,,S
Dez 26, 2016 11:14:49 PM gps.NMEA.utils.ChecksumUtilities getCRC
INFORMATION: Created CRC (6A)  for Sentence: $GPGGA,231449,5337.54,N,1005.89,W,8.0,06,1.7,14.9,M,0,M,,
Dez 26, 2016 11:14:50 PM gps.NMEA.utils.ChecksumUtilities getCRC
INFORMATION: Created CRC (4E)  for Sentence: $GPRMC,231450,A,5337.61,N,1005.91,E,010.2,92.0,261216,,S
Dez 26, 2016 11:14:50 PM gps.NMEA.utils.ChecksumUtilities getCRC
INFORMATION: Created CRC (77)  for Sentence: $GPGGA,231450,5337.75,N,1005.92,E,8.0,06,1.8,14.8,M,0,M,,
Dez 26, 2016 11:14:51 PM gps.NMEA.utils.ChecksumUtilities getCRC
INFORMATION: Created CRC (7A)  for Sentence: $GPGGA,231451,5337.83,N,1006.05,E,8.0,01,1.7,14.8,M,0,M,,
Dez 26, 2016 11:14:51 PM gps.NMEA.utils.ChecksumUtilities getCRC
INFORMATION: Created CRC (75)  for Sentence: $GPRMC,231451,A,5337.83,N,1006.05,E,010.1,0.0,261216,,S
Dez 26, 2016 11:14:52 PM gps.NMEA.utils.ChecksumUtilities getCRC
INFORMATION: Created CRC (7B)  for Sentence: $GPGGA,231452,5337.97,S,1006.28,W,8.0,04,1.8,14.5,M,0,M,,
Dez 26, 2016 11:14:53 PM gps.NMEA.utils.ChecksumUtilities getCRC
INFORMATION: Created CRC (55)  for Sentence: $GPRMC,231453,A,5338.11,S,1006.3,E,010.2,196.0,261216,,S
Dez 26, 2016 11:14:53 PM gps.NMEA.utils.ChecksumUtilities getCRC
INFORMATION: Created CRC (67)  for Sentence: $GPGGA,231453,5338.22,S,1006.35,E,8.0,11,1.8,14.3,M,0,M,,
Dez 26, 2016 11:14:54 PM gps.NMEA.utils.ChecksumUtilities getCRC
INFORMATION: Created CRC (6D)  for Sentence: $GPGGA,231454,5338.33,S,1006.48,E,8.0,06,1.9,14.3,M,0,M,,
Dez 26, 2016 11:14:54 PM gps.NMEA.utils.ChecksumUtilities getCRC
INFORMATION: Created CRC (67)  for Sentence: $GPRMC,231454,A,5338.33,S,1006.48,E,010.1,135.0,261216,,S
Dez 26, 2016 11:14:55 PM gps.NMEA.utils.ChecksumUtilities getCRC
INFORMATION: Created CRC (7B)  for Sentence: $GPGGA,231455,5338.44,S,1006.52,W,8.0,04,2.0,14.5,M,0,M,,
Dez 26, 2016 11:14:55 PM gps.NMEA.utils.ChecksumUtilities getCRC
INFORMATION: Created CRC (7A)  for Sentence: $GPRMC,231455,A,5338.44,S,1006.52,W,010.1,244.0,261216,,S
Dez 26, 2016 11:14:56 PM gps.NMEA.utils.ChecksumUtilities getCRC
INFORMATION: Created CRC (41)  for Sentence: $GPGGA,231456,5338.53,S,1006.7,W,8.0,08,2.2,14.4,M,0,M,,
Dez 26, 2016 11:14:57 PM gps.NMEA.utils.ChecksumUtilities getCRC
INFORMATION: Created CRC (48)  for Sentence: $GPRMC,231457,A,5338.64,S,1006.8,W,010.1,258.0,261216,,S
Dez 26, 2016 11:14:57 PM gps.NMEA.utils.ChecksumUtilities getCRC
INFORMATION: Created CRC (6F)  for Sentence: $GPGGA,231457,5338.75,N,1006.94,W,8.0,05,2.2,14.5,M,0,M,,
Dez 26, 2016 11:14:58 PM gps.NMEA.utils.ChecksumUtilities getCRC
INFORMATION: Created CRC (70)  for Sentence: $GPGGA,231458,5338.92,N,1007.13,E,8.0,03,2.3,14.7,M,0,M,,
Dez 26, 2016 11:14:58 PM gps.NMEA.utils.ChecksumUtilities getCRC
INFORMATION: Created CRC (41)  for Sentence: $GPRMC,231458,A,5338.92,N,1007.13,E,010.1,73.0,261216,,S
Dez 26, 2016 11:14:59 PM gps.NMEA.utils.ChecksumUtilities getCRC
INFORMATION: Created CRC (68)  for Sentence: $GPGGA,231459,5339.09,N,1007.39,W,8.0,01,2.2,14.4,M,0,M,,
Dez 26, 2016 11:15:00 PM gps.NMEA.utils.ChecksumUtilities getCRC
INFORMATION: Created CRC (7F)  for Sentence: $GPRMC,231500,A,5339.18,S,1007.47,W,010.2,293.0,261216,,S
Dez 26, 2016 11:15:00 PM gps.NMEA.utils.ChecksumUtilities getCRC
INFORMATION: Created CRC (74)  for Sentence: $GPGGA,231500,5339.19,S,1007.54,W,8.0,10,2.4,14.4,M,0,M,,
Dez 26, 2016 11:15:01 PM gps.NMEA.utils.ChecksumUtilities getCRC
INFORMATION: Created CRC (64)  for Sentence: $GPGGA,231501,5339.45,S,1007.81,E,8.0,06,2.5,14.0,M,0,M,,
Dez 26, 2016 11:15:01 PM gps.NMEA.utils.ChecksumUtilities getCRC
INFORMATION: Created CRC (60)  for Sentence: $GPRMC,231501,A,5339.45,S,1007.81,E,010.2,116.0,261216,,S
Dez 26, 2016 11:15:02 PM gps.NMEA.utils.ChecksumUtilities getCRC
INFORMATION: Created CRC (45)  for Sentence: $GPGGA,231502,5339.6,S,1008.02,W,8.0,01,2.5,14.4,M,0,M,,
Dez 26, 2016 11:15:02 PM gps.NMEA.utils.ChecksumUtilities getCRC
INFORMATION: Created CRC (76)  for Sentence: $GPRMC,231502,A,5339.73,S,1008.07,W,010.1,251.0,261216,,S
Dez 26, 2016 11:15:03 PM gps.NMEA.utils.ChecksumUtilities getCRC
INFORMATION: Created CRC (63)  for Sentence: $GPGGA,231503,5339.8,N,1008.1,W,8.0,10,2.4,14.2,M,0,M,,
Dez 26, 2016 11:15:04 PM gps.NMEA.utils.ChecksumUtilities getCRC
INFORMATION: Created CRC (7A)  for Sentence: $GPRMC,231504,A,5339.81,S,1008.14,W,010.1,223.0,261216,,S
Dez 26, 2016 11:15:04 PM gps.NMEA.utils.ChecksumUtilities getCRC
INFORMATION: Created CRC (68)  for Sentence: $GPGGA,231504,5339.85,S,1008.23,E,8.0,06,2.4,14.3,M,0,M,,
Dez 26, 2016 11:15:05 PM gps.NMEA.utils.ChecksumUtilities getCRC
INFORMATION: Created CRC (7E)  for Sentence: $GPGGA,231505,5339.91,S,1008.33,W,8.0,07,2.3,14.4,M,0,M,,
Dez 26, 2016 11:15:05 PM gps.NMEA.utils.ChecksumUtilities getCRC
INFORMATION: Created CRC (7D)  for Sentence: $GPRMC,231505,A,5339.91,S,1008.33,W,010.1,265.0,261216,,S
Dez 26, 2016 11:15:06 PM gps.NMEA.utils.ChecksumUtilities getCRC
INFORMATION: Created CRC (72)  for Sentence: $GPGGA,231506,5340.09,S,1008.44,W,8.0,00,2.3,14.3,M,0,M,,
Dez 26, 2016 11:15:07 PM gps.NMEA.utils.ChecksumUtilities getCRC
INFORMATION: Created CRC (68)  for Sentence: $GPRMC,231507,A,5340.13,S,1008.46,E,010.1,121.0,261216,,S
Dez 26, 2016 11:15:07 PM gps.NMEA.utils.ChecksumUtilities getCRC
INFORMATION: Created CRC (67)  for Sentence: $GPGGA,231507,5340.17,S,1008.53,E,8.0,08,2.3,14.4,M,0,M,,
Dez 26, 2016 11:15:08 PM gps.NMEA.utils.ChecksumUtilities getCRC
INFORMATION: Created CRC (64)  for Sentence: $GPGGA,231508,5340.31,S,1008.71,E,8.0,05,2.4,14.6,M,0,M,,
Dez 26, 2016 11:15:08 PM gps.NMEA.utils.ChecksumUtilities getCRC
INFORMATION: Created CRC (6D)  for Sentence: $GPRMC,231508,A,5340.31,S,1008.71,E,010.1,185.0,261216,,S
Dez 26, 2016 11:15:09 PM gps.NMEA.utils.ChecksumUtilities getCRC
INFORMATION: Created CRC (69)  for Sentence: $GPGGA,231509,5340.49,S,1008.89,E,8.0,05,2.3,14.5,M,0,M,,
Dez 26, 2016 11:15:10 PM gps.NMEA.utils.ChecksumUtilities getCRC
INFORMATION: Created CRC (4A)  for Sentence: $GPRMC,231510,A,5340.59,N,1008.99,E,010.1,34.0,261216,,S
Dez 26, 2016 11:15:10 PM gps.NMEA.utils.ChecksumUtilities getCRC
INFORMATION: Created CRC (72)  for Sentence: $GPGGA,231510,5340.73,N,1009.13,E,8.0,02,2.1,14.5,M,0,M,,
Dez 26, 2016 11:15:11 PM gps.NMEA.utils.ChecksumUtilities getCRC
INFORMATION: Created CRC (73)  for Sentence: $GPGGA,231511,5340.87,N,1009.29,E,8.0,06,2.1,14.3,M,0,M,,
Dez 26, 2016 11:15:11 PM gps.NMEA.utils.ChecksumUtilities getCRC
INFORMATION: Created CRC (45)  for Sentence: $GPRMC,231511,A,5340.87,N,1009.29,E,010.2,12.0,261216,,S
Dez 26, 2016 11:15:12 PM gps.NMEA.utils.ChecksumUtilities getCRC
INFORMATION: Created CRC (58)  for Sentence: $GPGGA,231512,5340.99,N,1009.5,W,8.0,09,2.0,14.6,M,0,M,,
Dez 26, 2016 11:15:12 PM gps.NMEA.utils.ChecksumUtilities getCRC
INFORMATION: Created CRC (57)  for Sentence: $GPRMC,231512,A,5340.99,N,1009.5,W,010.1,310.0,261216,,S
Dez 26, 2016 11:15:13 PM gps.NMEA.utils.ChecksumUtilities getCRC
INFORMATION: Created CRC (63)  for Sentence: $GPGGA,231513,5341.11,S,1009.65,E,8.0,05,2.0,14.8,M,0,M,,
Dez 26, 2016 11:15:14 PM gps.NMEA.utils.ChecksumUtilities getCRC
INFORMATION: Created CRC (5D)  for Sentence: $GPRMC,231514,A,5341.17,S,1009.7,E,010.1,105.0,261216,,S
Dez 26, 2016 11:15:14 PM gps.NMEA.utils.ChecksumUtilities getCRC
INFORMATION: Created CRC (55)  for Sentence: $GPGGA,231514,5341.26,S,1009.8,E,8.0,00,1.9,14.9,M,0,M,,
Dez 26, 2016 11:15:15 PM gps.NMEA.utils.ChecksumUtilities getCRC
INFORMATION: Created CRC (6A)  for Sentence: $GPGGA,231515,5341.44,N,1009.97,W,8.0,09,1.8,15.3,M,0,M,,
Dez 26, 2016 11:15:15 PM gps.NMEA.utils.ChecksumUtilities getCRC
INFORMATION: Created CRC (69)  for Sentence: $GPRMC,231515,A,5341.44,N,1009.97,W,010.1,331.0,261216,,S
Dez 26, 2016 11:15:16 PM gps.NMEA.utils.ChecksumUtilities getCRC
INFORMATION: Created CRC (4F)  for Sentence: $GPGGA,231516,5341.5,S,1010.03,W,8.0,10,1.8,15.0,M,0,M,,
Dez 26, 2016 11:15:17 PM gps.NMEA.utils.ChecksumUtilities getCRC
INFORMATION: Created CRC (77)  for Sentence: $GPRMC,231517,A,5341.55,S,1010.11,W,010.2,243.0,261216,,S
Dez 26, 2016 11:15:17 PM gps.NMEA.utils.ChecksumUtilities getCRC
INFORMATION: Created CRC (71)  for Sentence: $GPGGA,231517,5341.59,S,1010.11,W,8.0,07,1.8,15.3,M,0,M,,
Dez 26, 2016 11:15:18 PM gps.NMEA.utils.ChecksumUtilities getCRC
INFORMATION: Created CRC (64)  for Sentence: $GPGGA,231518,5341.82,N,1010.22,W,8.0,04,1.8,15.1,M,0,M,,
Dez 26, 2016 11:15:18 PM gps.NMEA.utils.ChecksumUtilities getCRC
INFORMATION: Created CRC (64)  for Sentence: $GPRMC,231518,A,5341.82,N,1010.22,W,010.2,358.0,261216,,S
Dez 26, 2016 11:15:19 PM gps.NMEA.utils.ChecksumUtilities getCRC
INFORMATION: Created CRC (65)  for Sentence: $GPGGA,231519,5341.97,S,1010.42,E,8.0,08,1.9,15.1,M,0,M,,
Dez 26, 2016 11:15:19 PM gps.NMEA.utils.ChecksumUtilities getCRC
INFORMATION: Created CRC (42)  for Sentence: $GPRMC,231519,A,5342.11,S,1010.5,W,010.3,229.0,261216,,S
Dez 26, 2016 11:15:20 PM gps.NMEA.utils.ChecksumUtilities getCRC
INFORMATION: Created CRC (6A)  for Sentence: $GPGGA,231520,5342.11,S,1010.55,E,8.0,06,1.9,15.1,M,0,M,,
Dez 26, 2016 11:15:21 PM gps.NMEA.utils.ChecksumUtilities getCRC
INFORMATION: Created CRC (7B)  for Sentence: $GPRMC,231521,A,5342.19,S,1010.57,W,010.1,204.0,261216,,S
Dez 26, 2016 11:15:21 PM gps.NMEA.utils.ChecksumUtilities getCRC
INFORMATION: Created CRC (72)  for Sentence: $GPGGA,231521,5342.32,S,1010.63,W,8.0,09,1.8,15.0,M,0,M,,
Dez 26, 2016 11:15:22 PM gps.NMEA.utils.ChecksumUtilities getCRC
INFORMATION: Created CRC (69)  for Sentence: $GPGGA,231522,5342.52,S,1010.78,E,8.0,07,1.9,14.8,M,0,M,,
Dez 26, 2016 11:15:22 PM gps.NMEA.utils.ChecksumUtilities getCRC
INFORMATION: Created CRC (6A)  for Sentence: $GPRMC,231522,A,5342.52,S,1010.78,E,010.1,163.0,261216,,S
Dez 26, 2016 11:15:23 PM gps.NMEA.utils.ChecksumUtilities getCRC
INFORMATION: Created CRC (42)  for Sentence: $GPGGA,231523,5342.64,S,1011.0,W,8.0,00,2.1,14.7,M,0,M,,
Dez 26, 2016 11:15:24 PM gps.NMEA.utils.ChecksumUtilities getCRC
INFORMATION: Created CRC (6F)  for Sentence: $GPRMC,231524,A,5342.77,N,1011.13,W,010.2,356.0,261216,,S
Dez 26, 2016 11:15:24 PM gps.NMEA.utils.ChecksumUtilities getCRC
INFORMATION: Created CRC (41)  for Sentence: $GPGGA,231524,5342.82,S,1011.2,W,8.0,11,2.1,14.9,M,0,M,,
Dez 26, 2016 11:15:25 PM gps.NMEA.utils.ChecksumUtilities getCRC
INFORMATION: Created CRC (61)  for Sentence: $GPGGA,231525,5342.88,S,1011.32,E,8.0,08,2.2,14.8,M,0,M,,
Dez 26, 2016 11:15:25 PM gps.NMEA.utils.ChecksumUtilities getCRC
INFORMATION: Created CRC (6D)  for Sentence: $GPRMC,231525,A,5342.88,S,1011.32,E,010.1,185.0,261216,,S
Dez 26, 2016 11:15:26 PM gps.NMEA.utils.ChecksumUtilities getCRC
INFORMATION: Created CRC (45)  for Sentence: $GPGGA,231526,5343.01,N,1011.5,E,8.0,07,2.2,14.9,M,0,M,,
Dez 26, 2016 11:15:27 PM gps.NMEA.utils.ChecksumUtilities getCRC
INFORMATION: Created CRC (4E)  for Sentence: $GPRMC,231527,A,5343.15,N,1011.53,E,010.1,13.0,261216,,S
Dez 26, 2016 11:15:27 PM gps.NMEA.utils.ChecksumUtilities getCRC
INFORMATION: Created CRC (72)  for Sentence: $GPGGA,231527,5343.21,N,1011.63,E,8.0,08,2.3,15.2,M,0,M,,
Dez 26, 2016 11:15:28 PM gps.NMEA.utils.ChecksumUtilities getCRC
INFORMATION: Created CRC (49)  for Sentence: $GPGGA,231528,5343.45,N,1011.8,E,8.0,07,2.1,15.4,M,0,M,,
Dez 26, 2016 11:15:28 PM gps.NMEA.utils.ChecksumUtilities getCRC
INFORMATION: Created CRC (7E)  for Sentence: $GPRMC,231528,A,5343.45,N,1011.8,E,010.1,17.0,261216,,S
Dez 26, 2016 11:15:29 PM gps.NMEA.utils.ChecksumUtilities getCRC
INFORMATION: Created CRC (6C)  for Sentence: $GPGGA,231529,5343.69,S,1011.96,E,8.0,04,2.3,15.5,M,0,M,,
Dez 26, 2016 11:15:29 PM gps.NMEA.utils.ChecksumUtilities getCRC
INFORMATION: Created CRC (6A)  for Sentence: $GPRMC,231529,A,5343.69,S,1011.96,E,010.1,142.0,261216,,S
Dez 26, 2016 11:15:30 PM gps.NMEA.utils.ChecksumUtilities getCRC
INFORMATION: Created CRC (76)  for Sentence: $GPGGA,231530,5343.81,N,1012.08,E,8.0,09,2.3,15.5,M,0,M,,
Dez 26, 2016 11:15:31 PM gps.NMEA.utils.ChecksumUtilities getCRC
INFORMATION: Created CRC (66)  for Sentence: $GPRMC,231531,A,5343.88,S,1012.16,E,010.1,143.0,261216,,S
Dez 26, 2016 11:15:31 PM gps.NMEA.utils.ChecksumUtilities getCRC
INFORMATION: Created CRC (6D)  for Sentence: $GPGGA,231531,5343.96,S,1012.23,E,8.0,04,2.4,15.7,M,0,M,,
Dez 26, 2016 11:15:32 PM gps.NMEA.utils.ChecksumUtilities getCRC
INFORMATION: Created CRC (7F)  for Sentence: $GPGGA,231532,5344.15,S,1012.38,W,8.0,02,2.4,15.4,M,0,M,,
Dez 26, 2016 11:15:32 PM gps.NMEA.utils.ChecksumUtilities getCRC
INFORMATION: Created CRC (7E)  for Sentence: $GPRMC,231532,A,5344.15,S,1012.38,W,010.1,231.0,261216,,S
Dez 26, 2016 11:15:33 PM gps.NMEA.utils.ChecksumUtilities getCRC
INFORMATION: Created CRC (7C)  for Sentence: $GPGGA,231533,5344.36,S,1012.49,W,8.0,10,2.6,15.0,M,0,M,,
Dez 26, 2016 11:15:34 PM gps.NMEA.utils.ChecksumUtilities getCRC
INFORMATION: Created CRC (63)  for Sentence: $GPRMC,231534,A,5344.41,N,1012.58,W,010.2,389.0,261216,,S
Dez 26, 2016 11:15:34 PM gps.NMEA.utils.ChecksumUtilities getCRC
INFORMATION: Created CRC (6A)  for Sentence: $GPGGA,231534,5344.46,N,1012.71,W,8.0,07,2.7,14.6,M,0,M,,
Dez 26, 2016 11:15:35 PM gps.NMEA.utils.ChecksumUtilities getCRC
INFORMATION: Created CRC (7A)  for Sentence: $GPGGA,231535,5344.56,S,1012.92,W,8.0,00,2.7,15.0,M,0,M,,
Dez 26, 2016 11:15:35 PM gps.NMEA.utils.ChecksumUtilities getCRC
INFORMATION: Created CRC (7F)  for Sentence: $GPRMC,231535,A,5344.56,S,1012.92,W,010.1,256.0,261216,,S
Dez 26, 2016 11:15:36 PM gps.NMEA.utils.ChecksumUtilities getCRC
INFORMATION: Created CRC (61)  for Sentence: $GPGGA,231536,5344.72,S,1013.19,E,8.0,09,2.7,14.6,M,0,M,,
Dez 26, 2016 11:15:36 PM gps.NMEA.utils.ChecksumUtilities getCRC
INFORMATION: Created CRC (6D)  for Sentence: $GPRMC,231536,A,5344.86,S,1013.32,E,010.3,116.0,261216,,S
Dez 26, 2016 11:15:37 PM gps.NMEA.utils.ChecksumUtilities getCRC
INFORMATION: Created CRC (6F)  for Sentence: $GPGGA,231537,5344.98,S,1013.43,E,8.0,08,2.7,14.3,M,0,M,,
Dez 26, 2016 11:15:38 PM gps.NMEA.utils.ChecksumUtilities getCRC
INFORMATION: Created CRC (7F)  for Sentence: $GPRMC,231538,A,5345.11,S,1013.56,W,010.1,272.0,261216,,S
Dez 26, 2016 11:15:38 PM gps.NMEA.utils.ChecksumUtilities getCRC
INFORMATION: Created CRC (7E)  for Sentence: $GPGGA,231538,5345.17,S,1013.67,W,8.0,05,2.6,14.3,M,0,M,,
Dez 26, 2016 11:15:39 PM gps.NMEA.utils.ChecksumUtilities getCRC
INFORMATION: Created CRC (78)  for Sentence: $GPGGA,231539,5345.36,S,1013.73,W,8.0,05,2.6,14.2,M,0,M,,
Dez 26, 2016 11:15:39 PM gps.NMEA.utils.ChecksumUtilities getCRC
INFORMATION: Created CRC (7B)  for Sentence: $GPRMC,231539,A,5345.36,S,1013.73,W,010.3,255.0,261216,,S
Dez 26, 2016 11:15:40 PM gps.NMEA.utils.ChecksumUtilities getCRC
INFORMATION: Created CRC (46)  for Sentence: $GPGGA,231540,5345.43,S,1013.9,W,8.0,02,2.8,14.4,M,0,M,,
Dez 26, 2016 11:15:41 PM gps.NMEA.utils.ChecksumUtilities getCRC
INFORMATION: Created CRC (63)  for Sentence: $GPRMC,231541,A,5345.54,N,1013.97,W,010.3,372.0,261216,,S
Dez 26, 2016 11:15:41 PM gps.NMEA.utils.ChecksumUtilities getCRC
INFORMATION: Created CRC (5D)  for Sentence: $GPGGA,231541,5345.66,N,1014.1,W,8.0,02,2.7,14.4,M,0,M,,
Dez 26, 2016 11:15:42 PM gps.NMEA.utils.ChecksumUtilities getCRC
INFORMATION: Created CRC (6A)  for Sentence: $GPGGA,231542,5345.76,N,1014.26,W,8.0,02,2.7,14.4,M,0,M,,
Dez 26, 2016 11:15:42 PM gps.NMEA.utils.ChecksumUtilities getCRC
INFORMATION: Created CRC (67)  for Sentence: $GPRMC,231542,A,5345.76,N,1014.26,W,010.1,394.0,261216,,S
Dez 26, 2016 11:15:43 PM gps.NMEA.utils.ChecksumUtilities getCRC
INFORMATION: Created CRC (63)  for Sentence: $GPGGA,231543,5345.98,N,1014.42,W,8.0,09,2.6,14.4,M,0,M,,
Dez 26, 2016 11:15:44 PM gps.NMEA.utils.ChecksumUtilities getCRC
INFORMATION: Created CRC (6F)  for Sentence: $GPRMC,231544,A,5346.01,N,1014.47,W,010.2,326.0,261216,,S
Dez 26, 2016 11:15:44 PM gps.NMEA.utils.ChecksumUtilities getCRC
INFORMATION: Created CRC (77)  for Sentence: $GPGGA,231544,5346.09,N,1014.54,E,8.0,10,2.6,14.1,M,0,M,,
Dez 26, 2016 11:15:45 PM gps.NMEA.utils.ChecksumUtilities getCRC
INFORMATION: Created CRC (7C)  for Sentence: $GPGGA,231545,5346.14,N,1014.64,E,8.0,06,2.6,14.3,M,0,M,,
Dez 26, 2016 11:15:45 PM gps.NMEA.utils.ChecksumUtilities getCRC
INFORMATION: Created CRC (4E)  for Sentence: $GPRMC,231545,A,5346.14,N,1014.64,E,010.2,11.0,261216,,S
Dez 26, 2016 11:15:46 PM gps.NMEA.utils.ChecksumUtilities getCRC
INFORMATION: Created CRC (66)  for Sentence: $GPGGA,231546,5346.35,N,1014.77,W,8.0,02,2.5,13.9,M,0,M,,
