Dez 29, 2016 5:02:40 PM gps.NMEA.utils.ChecksumUtilities getCRC
INFORMATION: Created CRC (5A)  for Sentence: $GPGGA,170240,5333.44,S,1001.48,E,8.0,08,1.9,150.2,M,0,M,,
Dez 29, 2016 5:02:40 PM gps.NMEA.utils.ChecksumUtilities getCRC
INFORMATION: Created CRC (5A)  for Sentence: $GPGGA,170240,5333.44,S,1001.48,E,8.0,08,1.9,150.2,M,0,M,,
Dez 29, 2016 5:02:40 PM gps.NMEA.utils.ChecksumUtilities isChecksumValid
INFORMATION: Sentence: $GPGGA,170240,5333.44,S,1001.48,E,8.0,08,1.9,150.2,M,0,M,,*5A is valid
Dez 29, 2016 5:02:41 PM gps.NMEA.utils.ChecksumUtilities getCRC
INFORMATION: Created CRC (6B)  for Sentence: $GPRMC,170241,A,5333.51,S,1001.72,E,010.0,132.0,291216,,S
Dez 29, 2016 5:02:41 PM gps.NMEA.utils.ChecksumUtilities getCRC
INFORMATION: Created CRC (6B)  for Sentence: $GPRMC,170241,A,5333.51,S,1001.72,E,010.0,132.0,291216,,S
Dez 29, 2016 5:02:41 PM gps.NMEA.utils.ChecksumUtilities isChecksumValid
INFORMATION: Sentence: $GPRMC,170241,A,5333.51,S,1001.72,E,010.0,132.0,291216,,S*6B is valid
Dez 29, 2016 5:02:41 PM gps.NMEA.utils.ChecksumUtilities getCRC
INFORMATION: Created CRC (55)  for Sentence: $GPGGA,170241,5333.51,S,1001.72,E,8.0,08,1.9,150.1,M,0,M,,
Dez 29, 2016 5:02:41 PM gps.NMEA.utils.ChecksumUtilities getCRC
INFORMATION: Created CRC (55)  for Sentence: $GPGGA,170241,5333.51,S,1001.72,E,8.0,08,1.9,150.1,M,0,M,,
Dez 29, 2016 5:02:41 PM gps.NMEA.utils.ChecksumUtilities isChecksumValid
INFORMATION: Sentence: $GPGGA,170241,5333.51,S,1001.72,E,8.0,08,1.9,150.1,M,0,M,,*55 is valid
Dez 29, 2016 5:02:42 PM gps.NMEA.utils.ChecksumUtilities getCRC
INFORMATION: Created CRC (73)  for Sentence: $GPRMC,170242,A,5333.57,S,1001.82,W,010.1,221.0,291216,,S
Dez 29, 2016 5:02:42 PM gps.NMEA.utils.ChecksumUtilities getCRC
INFORMATION: Created CRC (73)  for Sentence: $GPRMC,170242,A,5333.57,S,1001.82,W,010.1,221.0,291216,,S
Dez 29, 2016 5:02:42 PM gps.NMEA.utils.ChecksumUtilities isChecksumValid
INFORMATION: Sentence: $GPRMC,170242,A,5333.57,S,1001.82,W,010.1,221.0,291216,,S*73 is valid
Dez 29, 2016 5:02:42 PM gps.NMEA.utils.ChecksumUtilities getCRC
INFORMATION: Created CRC (54)  for Sentence: $GPGGA,170242,5333.66,N,1001.84,W,8.0,08,1.8,149.8,M,0,M,,
Dez 29, 2016 5:02:42 PM gps.NMEA.utils.ChecksumUtilities getCRC
INFORMATION: Created CRC (54)  for Sentence: $GPGGA,170242,5333.66,N,1001.84,W,8.0,08,1.8,149.8,M,0,M,,
Dez 29, 2016 5:02:42 PM gps.NMEA.utils.ChecksumUtilities isChecksumValid
INFORMATION: Sentence: $GPGGA,170242,5333.66,N,1001.84,W,8.0,08,1.8,149.8,M,0,M,,*54 is valid
Dez 29, 2016 5:02:43 PM gps.NMEA.utils.ChecksumUtilities getCRC
INFORMATION: Created CRC (6E)  for Sentence: $GPRMC,170243,A,5333.66,N,1001.84,W,010.1,361.0,291216,,S
Dez 29, 2016 5:02:43 PM gps.NMEA.utils.ChecksumUtilities getCRC
INFORMATION: Created CRC (6E)  for Sentence: $GPRMC,170243,A,5333.66,N,1001.84,W,010.1,361.0,291216,,S
Dez 29, 2016 5:02:43 PM gps.NMEA.utils.ChecksumUtilities isChecksumValid
INFORMATION: Sentence: $GPRMC,170243,A,5333.66,N,1001.84,W,010.1,361.0,291216,,S*6E is valid
Dez 29, 2016 5:02:43 PM gps.NMEA.utils.ChecksumUtilities getCRC
INFORMATION: Created CRC (41)  for Sentence: $GPGGA,170243,5333.82,S,1002.08,W,8.0,03,1.8,149.7,M,0,M,,
Dez 29, 2016 5:02:43 PM gps.NMEA.utils.ChecksumUtilities getCRC
INFORMATION: Created CRC (41)  for Sentence: $GPGGA,170243,5333.82,S,1002.08,W,8.0,03,1.8,149.7,M,0,M,,
Dez 29, 2016 5:02:43 PM gps.NMEA.utils.ChecksumUtilities isChecksumValid
INFORMATION: Sentence: $GPGGA,170243,5333.82,S,1002.08,W,8.0,03,1.8,149.7,M,0,M,,*41 is valid
Dez 29, 2016 5:02:43 PM gps.NMEA.utils.ChecksumUtilities getCRC
INFORMATION: Created CRC (7F)  for Sentence: $GPRMC,170243,A,5333.82,S,1002.08,W,010.0,224.0,291216,,S
Dez 29, 2016 5:02:43 PM gps.NMEA.utils.ChecksumUtilities getCRC
INFORMATION: Created CRC (7F)  for Sentence: $GPRMC,170243,A,5333.82,S,1002.08,W,010.0,224.0,291216,,S
Dez 29, 2016 5:02:43 PM gps.NMEA.utils.ChecksumUtilities isChecksumValid
INFORMATION: Sentence: $GPRMC,170243,A,5333.82,S,1002.08,W,010.0,224.0,291216,,S*7F is valid
Dez 29, 2016 5:02:44 PM gps.NMEA.utils.ChecksumUtilities getCRC
INFORMATION: Created CRC (4D)  for Sentence: $GPRMC,170244,A,5333.9,S,1002.08,W,010.1,267.0,291216,,S
Dez 29, 2016 5:02:44 PM gps.NMEA.utils.ChecksumUtilities getCRC
INFORMATION: Created CRC (4D)  for Sentence: $GPRMC,170244,A,5333.9,S,1002.08,W,010.1,267.0,291216,,S
Dez 29, 2016 5:02:44 PM gps.NMEA.utils.ChecksumUtilities isChecksumValid
INFORMATION: Sentence: $GPRMC,170244,A,5333.9,S,1002.08,W,010.1,267.0,291216,,S*4D is valid
Dez 29, 2016 5:02:44 PM gps.NMEA.utils.ChecksumUtilities getCRC
INFORMATION: Created CRC (51)  for Sentence: $GPGGA,170244,5333.92,S,1002.13,E,8.0,09,1.8,149.3,M,0,M,,
Dez 29, 2016 5:02:44 PM gps.NMEA.utils.ChecksumUtilities getCRC
INFORMATION: Created CRC (51)  for Sentence: $GPGGA,170244,5333.92,S,1002.13,E,8.0,09,1.8,149.3,M,0,M,,
Dez 29, 2016 5:02:44 PM gps.NMEA.utils.ChecksumUtilities isChecksumValid
INFORMATION: Sentence: $GPGGA,170244,5333.92,S,1002.13,E,8.0,09,1.8,149.3,M,0,M,,*51 is valid
