Dez 26, 2016 6:33:47 PM gps.NMEA.NMEAUtils.ChecksumUtilities getCRC
INFORMATION: Created CRC (68)  for Sentence: $GPGGA,183347,5333.43,S,1001.54,E,8.0,10,1.9,14.8,M,0,M,,
Dez 26, 2016 6:33:48 PM gps.NMEA.NMEAUtils.ChecksumUtilities getCRC
INFORMATION: Created CRC (68)  for Sentence: $GPRMC,183348,A,5333.53,N,1001.63,W,010.0,324.0,261216,,S
Dez 26, 2016 6:33:48 PM gps.NMEA.NMEAUtils.ChecksumUtilities getCRC
INFORMATION: Created CRC (66)  for Sentence: $GPGGA,183348,5333.53,N,1001.63,W,8.0,01,2.0,14.9,M,0,M,,
Dez 26, 2016 6:33:49 PM gps.NMEA.NMEAUtils.ChecksumUtilities getCRC
INFORMATION: Created CRC (59)  for Sentence: $GPGGA,183349,5333.74,N,1001.8,W,8.0,04,1.8,15.0,M,0,M,,
Dez 26, 2016 6:33:50 PM gps.NMEA.NMEAUtils.ChecksumUtilities getCRC
INFORMATION: Created CRC (63)  for Sentence: $GPGGA,183350,5333.93,N,1001.95,W,8.0,07,1.6,15.2,M,0,M,,
Dez 26, 2016 6:33:50 PM gps.NMEA.NMEAUtils.ChecksumUtilities getCRC
INFORMATION: Created CRC (6A)  for Sentence: $GPRMC,183350,A,5333.93,N,1001.95,W,010.0,308.0,261216,,S
Dez 26, 2016 6:33:51 PM gps.NMEA.NMEAUtils.ChecksumUtilities getCRC
INFORMATION: Created CRC (65)  for Sentence: $GPGGA,183351,5333.99,N,1002.05,W,8.0,09,1.8,15.5,M,0,M,,
Dez 26, 2016 6:33:52 PM gps.NMEA.NMEAUtils.ChecksumUtilities getCRC
INFORMATION: Created CRC (67)  for Sentence: $GPGGA,183352,5334.08,S,1002.24,E,8.0,04,1.7,15.5,M,0,M,,
Dez 26, 2016 6:33:52 PM gps.NMEA.NMEAUtils.ChecksumUtilities getCRC
INFORMATION: Created CRC (69)  for Sentence: $GPRMC,183352,A,5334.08,S,1002.24,E,010.0,191.0,261216,,S
Dez 26, 2016 6:33:53 PM gps.NMEA.NMEAUtils.ChecksumUtilities getCRC
INFORMATION: Created CRC (7E)  for Sentence: $GPGGA,183353,5334.22,S,1002.48,W,8.0,11,1.8,15.6,M,0,M,,
Dez 26, 2016 6:33:54 PM gps.NMEA.NMEAUtils.ChecksumUtilities getCRC
INFORMATION: Created CRC (7C)  for Sentence: $GPGGA,183354,5334.31,S,1002.63,W,8.0,11,1.7,15.7,M,0,M,,
Dez 26, 2016 6:33:55 PM gps.NMEA.NMEAUtils.ChecksumUtilities getCRC
INFORMATION: Created CRC (7B)  for Sentence: $GPRMC,183355,A,5334.31,S,1002.63,W,010.1,215.0,261216,,S
Dez 26, 2016 6:33:55 PM gps.NMEA.NMEAUtils.ChecksumUtilities getCRC
INFORMATION: Created CRC (70)  for Sentence: $GPGGA,183355,5334.46,N,1002.75,E,8.0,06,1.5,15.6,M,0,M,,
Dez 26, 2016 6:33:56 PM gps.NMEA.NMEAUtils.ChecksumUtilities getCRC
INFORMATION: Created CRC (61)  for Sentence: $GPGGA,183356,5334.67,S,1002.96,E,8.0,09,1.4,15.9,M,0,M,,
Dez 26, 2016 6:33:57 PM gps.NMEA.NMEAUtils.ChecksumUtilities getCRC
INFORMATION: Created CRC (65)  for Sentence: $GPRMC,183357,A,5334.67,S,1002.96,E,010.0,167.0,261216,,S
Dez 26, 2016 6:33:57 PM gps.NMEA.NMEAUtils.ChecksumUtilities getCRC
INFORMATION: Created CRC (73)  for Sentence: $GPGGA,183357,5334.82,S,1003.11,W,8.0,06,1.4,16.1,M,0,M,,
Dez 26, 2016 6:33:58 PM gps.NMEA.NMEAUtils.ChecksumUtilities getCRC
INFORMATION: Created CRC (64)  for Sentence: $GPGGA,183358,5334.99,N,1003.34,W,8.0,04,1.4,15.8,M,0,M,,
Dez 26, 2016 6:33:59 PM gps.NMEA.NMEAUtils.ChecksumUtilities getCRC
INFORMATION: Created CRC (71)  for Sentence: $GPRMC,183359,A,5335.08,S,1003.41,W,010.1,280.0,261216,,S
Dez 26, 2016 6:33:59 PM gps.NMEA.NMEAUtils.ChecksumUtilities getCRC
INFORMATION: Created CRC (7F)  for Sentence: $GPGGA,183359,5335.21,S,1003.49,W,8.0,10,1.5,16.0,M,0,M,,
Dez 26, 2016 6:34:00 PM gps.NMEA.NMEAUtils.ChecksumUtilities getCRC
INFORMATION: Created CRC (55)  for Sentence: $GPGGA,183400,5335.4,S,1003.56,E,8.0,08,1.4,16.2,M,0,M,,
Dez 26, 2016 6:34:01 PM gps.NMEA.NMEAUtils.ChecksumUtilities getCRC
INFORMATION: Created CRC (61)  for Sentence: $GPRMC,183401,A,5335.44,S,1003.57,E,010.1,159.0,261216,,S
Dez 26, 2016 6:34:01 PM gps.NMEA.NMEAUtils.ChecksumUtilities getCRC
INFORMATION: Created CRC (5D)  for Sentence: $GPGGA,183401,5335.5,S,1003.62,E,8.0,00,1.3,16.2,M,0,M,,
Dez 26, 2016 6:34:02 PM gps.NMEA.NMEAUtils.ChecksumUtilities getCRC
INFORMATION: Created CRC (64)  for Sentence: $GPGGA,183402,5335.72,N,1003.73,W,8.0,05,1.2,16.3,M,0,M,,
Dez 26, 2016 6:34:03 PM gps.NMEA.NMEAUtils.ChecksumUtilities getCRC
INFORMATION: Created CRC (62)  for Sentence: $GPRMC,183403,A,5335.84,N,1003.87,W,010.1,367.0,261216,,S
Dez 26, 2016 6:34:03 PM gps.NMEA.NMEAUtils.ChecksumUtilities getCRC
INFORMATION: Created CRC (65)  for Sentence: $GPGGA,183403,5335.89,N,1003.98,W,8.0,04,1.1,16.0,M,0,M,,
Dez 26, 2016 6:34:04 PM gps.NMEA.NMEAUtils.ChecksumUtilities getCRC
INFORMATION: Created CRC (7A)  for Sentence: $GPGGA,183404,5335.98,N,1004.21,E,8.0,11,1.0,15.9,M,0,M,,
Dez 26, 2016 6:34:05 PM gps.NMEA.NMEAUtils.ChecksumUtilities getCRC
INFORMATION: Created CRC (41)  for Sentence: $GPRMC,183405,A,5336.02,N,1004.25,E,010.2,37.0,261216,,S
Dez 26, 2016 6:34:05 PM gps.NMEA.NMEAUtils.ChecksumUtilities getCRC
INFORMATION: Created CRC (6A)  for Sentence: $GPGGA,183405,5336.05,S,1004.31,E,8.0,01,1.2,16.3,M,0,M,,
Dez 26, 2016 6:34:06 PM gps.NMEA.NMEAUtils.ChecksumUtilities getCRC
INFORMATION: Created CRC (61)  for Sentence: $GPGGA,183406,5336.13,S,1004.48,E,8.0,00,1.2,16.3,M,0,M,,
Dez 26, 2016 6:34:07 PM gps.NMEA.NMEAUtils.ChecksumUtilities getCRC
INFORMATION: Created CRC (61)  for Sentence: $GPGGA,183407,5336.28,S,1004.63,E,8.0,11,1.2,16.3,M,0,M,,
Dez 26, 2016 6:34:07 PM gps.NMEA.NMEAUtils.ChecksumUtilities getCRC
INFORMATION: Created CRC (61)  for Sentence: $GPRMC,183407,A,5336.28,S,1004.63,E,010.1,165.0,261216,,S
Dez 26, 2016 6:34:08 PM gps.NMEA.NMEAUtils.ChecksumUtilities getCRC
INFORMATION: Created CRC (55)  for Sentence: $GPGGA,183408,5336.4,N,1004.79,W,8.0,07,1.2,16.5,M,0,M,,
Dez 26, 2016 6:34:09 PM gps.NMEA.NMEAUtils.ChecksumUtilities getCRC
INFORMATION: Created CRC (70)  for Sentence: $GPGGA,183409,5336.45,S,1004.97,W,8.0,08,1.2,16.6,M,0,M,,
Dez 26, 2016 6:34:09 PM gps.NMEA.NMEAUtils.ChecksumUtilities getCRC
INFORMATION: Created CRC (77)  for Sentence: $GPRMC,183409,A,5336.45,S,1004.97,W,010.1,228.0,261216,,S
Dez 26, 2016 6:34:10 PM gps.NMEA.NMEAUtils.ChecksumUtilities getCRC
INFORMATION: Created CRC (6C)  for Sentence: $GPGGA,183410,5336.65,S,1005.06,E,8.0,03,1.4,16.6,M,0,M,,
Dez 26, 2016 6:34:11 PM gps.NMEA.NMEAUtils.ChecksumUtilities getCRC
INFORMATION: Created CRC (7C)  for Sentence: $GPGGA,183411,5336.85,N,1005.26,E,8.0,10,1.6,16.6,M,0,M,,
Dez 26, 2016 6:34:12 PM gps.NMEA.NMEAUtils.ChecksumUtilities getCRC
INFORMATION: Created CRC (4E)  for Sentence: $GPRMC,183412,A,5336.85,N,1005.26,E,010.0,46.0,261216,,S
Dez 26, 2016 6:34:12 PM gps.NMEA.NMEAUtils.ChecksumUtilities getCRC
INFORMATION: Created CRC (68)  for Sentence: $GPGGA,183412,5336.92,N,1005.39,W,8.0,10,1.5,16.8,M,0,M,,
Dez 26, 2016 6:34:13 PM gps.NMEA.NMEAUtils.ChecksumUtilities getCRC
INFORMATION: Created CRC (5F)  for Sentence: $GPGGA,183413,5337.1,N,1005.44,W,8.0,09,1.7,16.5,M,0,M,,
Dez 26, 2016 6:34:14 PM gps.NMEA.NMEAUtils.ChecksumUtilities getCRC
INFORMATION: Created CRC (56)  for Sentence: $GPRMC,183414,A,5337.1,N,1005.44,W,010.2,324.0,261216,,S
Dez 26, 2016 6:34:14 PM gps.NMEA.NMEAUtils.ChecksumUtilities getCRC
INFORMATION: Created CRC (44)  for Sentence: $GPGGA,183414,5337.18,N,1005.6,E,8.0,08,1.7,16.4,M,0,M,,
Dez 26, 2016 6:34:15 PM gps.NMEA.NMEAUtils.ChecksumUtilities getCRC
INFORMATION: Created CRC (62)  for Sentence: $GPGGA,183415,5337.26,N,1005.64,W,8.0,03,1.7,16.3,M,0,M,,
Dez 26, 2016 6:34:16 PM gps.NMEA.NMEAUtils.ChecksumUtilities getCRC
INFORMATION: Created CRC (42)  for Sentence: $GPRMC,183416,A,5337.4,S,1005.68,W,010.1,262.0,261216,,S
Dez 26, 2016 6:34:16 PM gps.NMEA.NMEAUtils.ChecksumUtilities getCRC
INFORMATION: Created CRC (6D)  for Sentence: $GPGGA,183416,5337.43,N,1005.81,W,8.0,04,1.7,16.0,M,0,M,,
Dez 26, 2016 6:34:17 PM gps.NMEA.NMEAUtils.ChecksumUtilities getCRC
INFORMATION: Created CRC (73)  for Sentence: $GPGGA,183417,5337.57,S,1005.96,W,8.0,00,1.6,15.7,M,0,M,,
Dez 26, 2016 6:34:18 PM gps.NMEA.NMEAUtils.ChecksumUtilities getCRC
INFORMATION: Created CRC (7F)  for Sentence: $GPRMC,183418,A,5337.58,S,1005.99,W,010.1,222.0,261216,,S
Dez 26, 2016 6:34:18 PM gps.NMEA.NMEAUtils.ChecksumUtilities getCRC
INFORMATION: Created CRC (49)  for Sentence: $GPGGA,183418,5337.7,S,1006.02,W,8.0,09,1.5,16.0,M,0,M,,
Dez 26, 2016 6:34:19 PM gps.NMEA.NMEAUtils.ChecksumUtilities getCRC
INFORMATION: Created CRC (53)  for Sentence: $GPGGA,183419,5337.9,S,1006.13,E,8.0,05,1.5,15.8,M,0,M,,
Dez 26, 2016 6:34:20 PM gps.NMEA.NMEAUtils.ChecksumUtilities getCRC
INFORMATION: Created CRC (7F)  for Sentence: $GPRMC,183420,A,5337.95,N,1006.2,E,010.2,14.0,261216,,S
Dez 26, 2016 6:34:20 PM gps.NMEA.NMEAUtils.ChecksumUtilities getCRC
INFORMATION: Created CRC (71)  for Sentence: $GPGGA,183420,5337.99,N,1006.21,E,8.0,07,1.6,15.4,M,0,M,,
Dez 26, 2016 6:34:21 PM gps.NMEA.NMEAUtils.ChecksumUtilities getCRC
INFORMATION: Created CRC (50)  for Sentence: $GPGGA,183421,5338.05,N,1006.3,W,8.0,09,1.5,15.1,M,0,M,,
Dez 26, 2016 6:34:22 PM gps.NMEA.NMEAUtils.ChecksumUtilities getCRC
INFORMATION: Created CRC (4A)  for Sentence: $GPRMC,183422,A,5338.09,N,1006.35,E,010.1,87.0,261216,,S
Dez 26, 2016 6:34:22 PM gps.NMEA.NMEAUtils.ChecksumUtilities getCRC
INFORMATION: Created CRC (78)  for Sentence: $GPGGA,183422,5338.16,N,1006.39,E,8.0,09,1.4,15.2,M,0,M,,
Dez 26, 2016 6:34:23 PM gps.NMEA.NMEAUtils.ChecksumUtilities getCRC
INFORMATION: Created CRC (6D)  for Sentence: $GPGGA,183423,5338.33,N,1006.47,W,8.0,10,1.4,15.2,M,0,M,,
Dez 26, 2016 6:34:24 PM gps.NMEA.NMEAUtils.ChecksumUtilities getCRC
INFORMATION: Created CRC (4B)  for Sentence: $GPGGA,183424,5338.41,N,1006.7,E,8.0,03,1.2,15.4,M,0,M,,
Dez 26, 2016 6:34:24 PM gps.NMEA.NMEAUtils.ChecksumUtilities getCRC
INFORMATION: Created CRC (70)  for Sentence: $GPRMC,183424,A,5338.41,N,1006.7,E,010.2,94.0,261216,,S
Dez 26, 2016 6:34:25 PM gps.NMEA.NMEAUtils.ChecksumUtilities getCRC
INFORMATION: Created CRC (7E)  for Sentence: $GPGGA,183425,5338.48,N,1006.97,E,8.0,06,1.1,15.6,M,0,M,,
Dez 26, 2016 6:34:26 PM gps.NMEA.NMEAUtils.ChecksumUtilities getCRC
INFORMATION: Created CRC (6A)  for Sentence: $GPGGA,183426,5338.67,S,1007.13,E,8.0,01,0.9,15.2,M,0,M,,
Dez 26, 2016 6:34:26 PM gps.NMEA.NMEAUtils.ChecksumUtilities getCRC
INFORMATION: Created CRC (6D)  for Sentence: $GPRMC,183426,A,5338.67,S,1007.13,E,010.1,149.0,261216,,S
Dez 26, 2016 6:34:27 PM gps.NMEA.NMEAUtils.ChecksumUtilities getCRC
INFORMATION: Created CRC (55)  for Sentence: $GPGGA,183427,5338.78,S,1007.3,E,8.0,06,0.8,15.5,M,0,M,,
Dez 26, 2016 6:34:28 PM gps.NMEA.NMEAUtils.ChecksumUtilities getCRC
INFORMATION: Created CRC (69)  for Sentence: $GPGGA,183428,5338.84,S,1007.37,E,8.0,11,0.9,15.5,M,0,M,,
Dez 26, 2016 6:34:29 PM gps.NMEA.NMEAUtils.ChecksumUtilities getCRC
INFORMATION: Created CRC (60)  for Sentence: $GPRMC,183429,A,5338.84,S,1007.37,E,010.1,137.0,261216,,S
Dez 26, 2016 6:34:29 PM gps.NMEA.NMEAUtils.ChecksumUtilities getCRC
INFORMATION: Created CRC (71)  for Sentence: $GPGGA,183429,5339.01,N,1007.51,E,8.0,09,0.8,15.5,M,0,M,,
Dez 26, 2016 6:34:30 PM gps.NMEA.NMEAUtils.ChecksumUtilities getCRC
INFORMATION: Created CRC (6B)  for Sentence: $GPGGA,183430,5339.08,S,1007.66,E,8.0,04,0.7,15.5,M,0,M,,
Dez 26, 2016 6:34:31 PM gps.NMEA.NMEAUtils.ChecksumUtilities getCRC
INFORMATION: Created CRC (6C)  for Sentence: $GPRMC,183431,A,5339.08,S,1007.66,E,010.1,177.0,261216,,S
Dez 26, 2016 6:34:31 PM gps.NMEA.NMEAUtils.ChecksumUtilities getCRC
INFORMATION: Created CRC (7A)  for Sentence: $GPGGA,183431,5339.24,N,1007.92,E,8.0,11,0.9,15.7,M,0,M,,
Dez 26, 2016 6:34:32 PM gps.NMEA.NMEAUtils.ChecksumUtilities getCRC
INFORMATION: Created CRC (7A)  for Sentence: $GPGGA,183432,5339.43,N,1008.09,E,8.0,07,1.1,15.6,M,0,M,,
Dez 26, 2016 6:34:33 PM gps.NMEA.NMEAUtils.ChecksumUtilities getCRC
INFORMATION: Created CRC (70)  for Sentence: $GPRMC,183433,A,5339.5,N,1008.23,E,010.2,20.0,261216,,S
Dez 26, 2016 6:34:33 PM gps.NMEA.NMEAUtils.ChecksumUtilities getCRC
INFORMATION: Created CRC (6B)  for Sentence: $GPGGA,183433,5339.55,S,1008.27,E,8.0,04,1.1,15.3,M,0,M,,
Dez 26, 2016 6:34:34 PM gps.NMEA.NMEAUtils.ChecksumUtilities getCRC
INFORMATION: Created CRC (61)  for Sentence: $GPGGA,183434,5339.78,S,1008.41,E,8.0,04,1.1,15.1,M,0,M,,
Dez 26, 2016 6:34:35 PM gps.NMEA.NMEAUtils.ChecksumUtilities getCRC
INFORMATION: Created CRC (4D)  for Sentence: $GPRMC,183435,A,5339.84,N,1008.51,E,010.2,27.0,261216,,S
Dez 26, 2016 6:34:35 PM gps.NMEA.NMEAUtils.ChecksumUtilities getCRC
INFORMATION: Created CRC (60)  for Sentence: $GPGGA,183435,5339.9,S,1008.6,E,8.0,11,1.2,15.3,M,0,M,,
Dez 26, 2016 6:34:36 PM gps.NMEA.NMEAUtils.ChecksumUtilities getCRC
INFORMATION: Created CRC (57)  for Sentence: $GPGGA,183436,5340.06,S,1008.6,E,8.0,04,1.3,15.3,M,0,M,,
Dez 26, 2016 6:34:37 PM gps.NMEA.NMEAUtils.ChecksumUtilities getCRC
INFORMATION: Created CRC (60)  for Sentence: $GPRMC,183437,A,5340.11,S,1008.72,E,010.1,106.0,261216,,S
Dez 26, 2016 6:34:37 PM gps.NMEA.NMEAUtils.ChecksumUtilities getCRC
INFORMATION: Created CRC (5B)  for Sentence: $GPGGA,183437,5340.2,S,1008.86,E,8.0,04,1.3,15.2,M,0,M,,
Dez 26, 2016 6:34:38 PM gps.NMEA.NMEAUtils.ChecksumUtilities getCRC
INFORMATION: Created CRC (6A)  for Sentence: $GPGGA,183438,5340.41,S,1009.04,E,8.0,04,1.1,15.2,M,0,M,,
Dez 26, 2016 6:34:39 PM gps.NMEA.NMEAUtils.ChecksumUtilities getCRC
INFORMATION: Created CRC (7E)  for Sentence: $GPRMC,183439,A,5340.45,S,1009.13,W,010.2,203.0,261216,,S
Dez 26, 2016 6:34:39 PM gps.NMEA.NMEAUtils.ChecksumUtilities getCRC
INFORMATION: Created CRC (4B)  for Sentence: $GPGGA,183439,5340.6,S,1009.14,W,8.0,10,1.2,15.4,M,0,M,,
Dez 26, 2016 6:34:40 PM gps.NMEA.NMEAUtils.ChecksumUtilities getCRC
INFORMATION: Created CRC (65)  for Sentence: $GPGGA,183440,5340.64,S,1009.37,E,8.0,03,1.2,15.1,M,0,M,,
Dez 26, 2016 6:34:41 PM gps.NMEA.NMEAUtils.ChecksumUtilities getCRC
INFORMATION: Created CRC (7B)  for Sentence: $GPGGA,183441,5340.72,N,1009.55,E,8.0,03,1.3,15.1,M,0,M,,
Dez 26, 2016 6:34:41 PM gps.NMEA.NMEAUtils.ChecksumUtilities getCRC
INFORMATION: Created CRC (45)  for Sentence: $GPRMC,183441,A,5340.72,N,1009.55,E,010.1,87.0,261216,,S
Dez 26, 2016 6:34:42 PM gps.NMEA.NMEAUtils.ChecksumUtilities getCRC
INFORMATION: Created CRC (6C)  for Sentence: $GPGGA,183442,5340.84,S,1009.72,E,8.0,05,1.3,15.2,M,0,M,,
Dez 26, 2016 6:34:43 PM gps.NMEA.NMEAUtils.ChecksumUtilities getCRC
INFORMATION: Created CRC (6B)  for Sentence: $GPGGA,183443,5340.99,S,1009.92,E,8.0,10,1.3,15.2,M,0,M,,
Dez 26, 2016 6:34:43 PM gps.NMEA.NMEAUtils.ChecksumUtilities getCRC
INFORMATION: Created CRC (61)  for Sentence: $GPRMC,183443,A,5340.99,S,1009.92,E,010.1,192.0,261216,,S
Dez 26, 2016 6:34:44 PM gps.NMEA.NMEAUtils.ChecksumUtilities getCRC
INFORMATION: Created CRC (5B)  for Sentence: $GPGGA,183444,5341.1,S,1010.03,E,8.0,03,1.5,15.1,M,0,M,,
Dez 26, 2016 6:34:45 PM gps.NMEA.NMEAUtils.ChecksumUtilities getCRC
INFORMATION: Created CRC (6D)  for Sentence: $GPGGA,183445,5341.22,S,1010.16,E,8.0,11,1.5,15.0,M,0,M,,
Dez 26, 2016 6:34:46 PM gps.NMEA.NMEAUtils.ChecksumUtilities getCRC
INFORMATION: Created CRC (6C)  for Sentence: $GPRMC,183446,A,5341.22,S,1010.16,E,010.2,136.0,261216,,S
Dez 26, 2016 6:34:46 PM gps.NMEA.NMEAUtils.ChecksumUtilities getCRC
INFORMATION: Created CRC (72)  for Sentence: $GPGGA,183446,5341.28,N,1010.34,E,8.0,10,1.6,14.8,M,0,M,,
Dez 26, 2016 6:34:47 PM gps.NMEA.NMEAUtils.ChecksumUtilities getCRC
INFORMATION: Created CRC (72)  for Sentence: $GPGGA,183447,5341.42,S,1010.45,W,8.0,05,1.7,14.9,M,0,M,,
Dez 26, 2016 6:34:48 PM gps.NMEA.NMEAUtils.ChecksumUtilities getCRC
INFORMATION: Created CRC (72)  for Sentence: $GPRMC,183448,A,5341.42,S,1010.45,W,010.3,272.0,261216,,S
Dez 26, 2016 6:34:48 PM gps.NMEA.NMEAUtils.ChecksumUtilities getCRC
INFORMATION: Created CRC (75)  for Sentence: $GPGGA,183448,5341.57,S,1010.51,W,8.0,04,1.5,15.2,M,0,M,,
Dez 26, 2016 6:34:49 PM gps.NMEA.NMEAUtils.ChecksumUtilities getCRC
INFORMATION: Created CRC (7B)  for Sentence: $GPGGA,183449,5341.68,S,1010.76,W,8.0,01,1.6,15.2,M,0,M,,
Dez 26, 2016 6:34:50 PM gps.NMEA.NMEAUtils.ChecksumUtilities getCRC
INFORMATION: Created CRC (74)  for Sentence: $GPRMC,183450,A,5341.76,S,1010.81,W,010.1,252.0,261216,,S
Dez 26, 2016 6:34:50 PM gps.NMEA.NMEAUtils.ChecksumUtilities getCRC
INFORMATION: Created CRC (50)  for Sentence: $GPGGA,183450,5341.9,N,1010.83,W,8.0,00,1.6,15.0,M,0,M,,
