Dez 31, 2016 7:40:00 PM gps.NMEA.utils.ChecksumUtilities getCRC
INFORMATION: Created CRC (59)  for Sentence: $GPGGA,194000,5333.46,S,1001.48,E,8.0,05,1.9,150.2,M,0,M,,
Dez 31, 2016 7:40:00 PM gps.NMEA.utils.ChecksumUtilities getCRC
INFORMATION: Created CRC (59)  for Sentence: $GPGGA,194000,5333.46,S,1001.48,E,8.0,05,1.9,150.2,M,0,M,,
Dez 31, 2016 7:40:00 PM gps.NMEA.utils.ChecksumUtilities isChecksumValid
INFORMATION: Sentence: $GPGGA,194000,5333.46,S,1001.48,E,8.0,05,1.9,150.2,M,0,M,,*59 is valid
Dez 31, 2016 7:40:01 PM gps.NMEA.utils.ChecksumUtilities getCRC
INFORMATION: Created CRC (7C)  for Sentence: $GPRMC,194001,A,5333.62,S,1001.67,W,010.0,242.0,311216,,S
Dez 31, 2016 7:40:01 PM gps.NMEA.utils.ChecksumUtilities getCRC
INFORMATION: Created CRC (7C)  for Sentence: $GPRMC,194001,A,5333.62,S,1001.67,W,010.0,242.0,311216,,S
Dez 31, 2016 7:40:01 PM gps.NMEA.utils.ChecksumUtilities isChecksumValid
INFORMATION: Sentence: $GPRMC,194001,A,5333.62,S,1001.67,W,010.0,242.0,311216,,S*7C is valid
Dez 31, 2016 7:40:01 PM gps.NMEA.utils.ChecksumUtilities getCRC
INFORMATION: Created CRC (47)  for Sentence: $GPGGA,194001,5333.62,S,1001.67,W,8.0,11,1.9,150.1,M,0,M,,
Dez 31, 2016 7:40:01 PM gps.NMEA.utils.ChecksumUtilities getCRC
INFORMATION: Created CRC (47)  for Sentence: $GPGGA,194001,5333.62,S,1001.67,W,8.0,11,1.9,150.1,M,0,M,,
Dez 31, 2016 7:40:01 PM gps.NMEA.utils.ChecksumUtilities isChecksumValid
INFORMATION: Sentence: $GPGGA,194001,5333.62,S,1001.67,W,8.0,11,1.9,150.1,M,0,M,,*47 is valid
Dez 31, 2016 7:40:02 PM gps.NMEA.utils.ChecksumUtilities getCRC
INFORMATION: Created CRC (5D)  for Sentence: $GPGGA,194002,5333.73,S,1001.78,E,8.0,00,1.8,150.5,M,0,M,,
Dez 31, 2016 7:40:02 PM gps.NMEA.utils.ChecksumUtilities getCRC
INFORMATION: Created CRC (5D)  for Sentence: $GPGGA,194002,5333.73,S,1001.78,E,8.0,00,1.8,150.5,M,0,M,,
Dez 31, 2016 7:40:02 PM gps.NMEA.utils.ChecksumUtilities isChecksumValid
INFORMATION: Sentence: $GPGGA,194002,5333.73,S,1001.78,E,8.0,00,1.8,150.5,M,0,M,,*5D is valid
Dez 31, 2016 7:40:03 PM gps.NMEA.utils.ChecksumUtilities getCRC
INFORMATION: Created CRC (44)  for Sentence: $GPGGA,194003,5333.86,S,1002.02,W,8.0,00,1.7,150.4,M,0,M,,
Dez 31, 2016 7:40:03 PM gps.NMEA.utils.ChecksumUtilities getCRC
INFORMATION: Created CRC (44)  for Sentence: $GPGGA,194003,5333.86,S,1002.02,W,8.0,00,1.7,150.4,M,0,M,,
Dez 31, 2016 7:40:03 PM gps.NMEA.utils.ChecksumUtilities isChecksumValid
INFORMATION: Sentence: $GPGGA,194003,5333.86,S,1002.02,W,8.0,00,1.7,150.4,M,0,M,,*44 is valid
Dez 31, 2016 7:40:03 PM gps.NMEA.utils.ChecksumUtilities getCRC
INFORMATION: Created CRC (7A)  for Sentence: $GPRMC,194003,A,5333.86,S,1002.02,W,010.1,290.0,311216,,S
Dez 31, 2016 7:40:03 PM gps.NMEA.utils.ChecksumUtilities getCRC
INFORMATION: Created CRC (7A)  for Sentence: $GPRMC,194003,A,5333.86,S,1002.02,W,010.1,290.0,311216,,S
Dez 31, 2016 7:40:03 PM gps.NMEA.utils.ChecksumUtilities isChecksumValid
INFORMATION: Sentence: $GPRMC,194003,A,5333.86,S,1002.02,W,010.1,290.0,311216,,S*7A is valid
Dez 31, 2016 7:40:04 PM gps.NMEA.utils.ChecksumUtilities getCRC
INFORMATION: Created CRC (77)  for Sentence: $GPGGA,194004,5334.0,N,1002.26,E,8.0,04,1.7,150.4,M,0,M,,
Dez 31, 2016 7:40:04 PM gps.NMEA.utils.ChecksumUtilities getCRC
INFORMATION: Created CRC (77)  for Sentence: $GPGGA,194004,5334.0,N,1002.26,E,8.0,04,1.7,150.4,M,0,M,,
Dez 31, 2016 7:40:04 PM gps.NMEA.utils.ChecksumUtilities isChecksumValid
INFORMATION: Sentence: $GPGGA,194004,5334.0,N,1002.26,E,8.0,04,1.7,150.4,M,0,M,,*77 is valid
Dez 31, 2016 7:40:05 PM gps.NMEA.utils.ChecksumUtilities getCRC
INFORMATION: Created CRC (72)  for Sentence: $GPGGA,194005,5334.1,N,1002.38,E,8.0,02,1.9,150.6,M,0,M,,
Dez 31, 2016 7:40:05 PM gps.NMEA.utils.ChecksumUtilities getCRC
INFORMATION: Created CRC (72)  for Sentence: $GPGGA,194005,5334.1,N,1002.38,E,8.0,02,1.9,150.6,M,0,M,,
Dez 31, 2016 7:40:05 PM gps.NMEA.utils.ChecksumUtilities isChecksumValid
INFORMATION: Sentence: $GPGGA,194005,5334.1,N,1002.38,E,8.0,02,1.9,150.6,M,0,M,,*72 is valid
Dez 31, 2016 7:40:05 PM gps.NMEA.utils.ChecksumUtilities getCRC
INFORMATION: Created CRC (4E)  for Sentence: $GPRMC,194005,A,5334.1,N,1002.38,E,010.1,7.0,311216,,S
Dez 31, 2016 7:40:05 PM gps.NMEA.utils.ChecksumUtilities getCRC
INFORMATION: Created CRC (4E)  for Sentence: $GPRMC,194005,A,5334.1,N,1002.38,E,010.1,7.0,311216,,S
Dez 31, 2016 7:40:05 PM gps.NMEA.utils.ChecksumUtilities isChecksumValid
INFORMATION: Sentence: $GPRMC,194005,A,5334.1,N,1002.38,E,010.1,7.0,311216,,S*4E is valid
Dez 31, 2016 7:40:06 PM gps.NMEA.utils.ChecksumUtilities getCRC
INFORMATION: Created CRC (43)  for Sentence: $GPGGA,194006,5334.35,N,1002.47,E,8.0,00,1.8,150.8,M,0,M,,
Dez 31, 2016 7:40:06 PM gps.NMEA.utils.ChecksumUtilities getCRC
INFORMATION: Created CRC (43)  for Sentence: $GPGGA,194006,5334.35,N,1002.47,E,8.0,00,1.8,150.8,M,0,M,,
Dez 31, 2016 7:40:06 PM gps.NMEA.utils.ChecksumUtilities isChecksumValid
INFORMATION: Sentence: $GPGGA,194006,5334.35,N,1002.47,E,8.0,00,1.8,150.8,M,0,M,,*43 is valid
