Dez 26, 2016 11:14:30 PM gps.NMEA.utils.ChecksumUtilities getCRC
INFORMATION: Created CRC (7F)  for Sentence: $GPGGA,231430,5333.46,N,1001.44,E,8.0,00,2.0,15.1,M,0,M,,
Dez 26, 2016 11:14:30 PM gps.NMEA.utils.ChecksumUtilities getCRC
INFORMATION: Created CRC (7F)  for Sentence: $GPGGA,231430,5333.46,N,1001.44,E,8.0,00,2.0,15.1,M,0,M,,
Dez 26, 2016 11:14:30 PM gps.NMEA.utils.ChecksumUtilities getCRC
INFORMATION: Created CRC (7F)  for Sentence: $GPGGA,231430,5333.46,N,1001.44,E,8.0,00,2.0,15.1,M,0,M,,
Dez 26, 2016 11:14:30 PM gps.NMEA.utils.ChecksumUtilities getCRC
INFORMATION: Created CRC (44)  for Sentence: $GPRMC,231430,A,5333.62,N,1001.55,E,010.0,97.0,261216,,S
Dez 26, 2016 11:14:30 PM gps.NMEA.utils.ChecksumUtilities getCRC
INFORMATION: Created CRC (44)  for Sentence: $GPRMC,231430,A,5333.62,N,1001.55,E,010.0,97.0,261216,,S
Dez 26, 2016 11:14:30 PM gps.NMEA.utils.ChecksumUtilities getCRC
INFORMATION: Created CRC (7D)  for Sentence: $GPGGA,231430,5333.62,N,1001.55,E,8.0,04,2.0,15.1,M,0,M,,
Dez 26, 2016 11:14:30 PM gps.NMEA.utils.ChecksumUtilities getCRC
INFORMATION: Created CRC (7D)  for Sentence: $GPGGA,231430,5333.62,N,1001.55,E,8.0,04,2.0,15.1,M,0,M,,
Dez 26, 2016 11:14:31 PM gps.NMEA.utils.ChecksumUtilities getCRC
INFORMATION: Created CRC (45)  for Sentence: $GPRMC,231431,A,5333.62,N,1001.55,E,010.0,97.0,261216,,S
Dez 26, 2016 11:14:31 PM gps.NMEA.utils.ChecksumUtilities getCRC
INFORMATION: Created CRC (7C)  for Sentence: $GPGGA,231431,5333.62,N,1001.55,E,8.0,04,2.0,15.1,M,0,M,,
Dez 26, 2016 11:14:31 PM gps.NMEA.utils.ChecksumUtilities getCRC
INFORMATION: Created CRC (65)  for Sentence: $GPRMC,231431,A,5333.63,N,1001.65,W,010.1,359.0,261216,,S
Dez 26, 2016 11:14:31 PM gps.NMEA.utils.ChecksumUtilities getCRC
INFORMATION: Created CRC (65)  for Sentence: $GPRMC,231431,A,5333.63,N,1001.65,W,010.1,359.0,261216,,S
Dez 26, 2016 11:14:31 PM gps.NMEA.utils.ChecksumUtilities getCRC
INFORMATION: Created CRC (65)  for Sentence: $GPGGA,231431,5333.68,N,1001.77,W,8.0,07,2.2,15.1,M,0,M,,
Dez 26, 2016 11:14:31 PM gps.NMEA.utils.ChecksumUtilities getCRC
INFORMATION: Created CRC (65)  for Sentence: $GPGGA,231431,5333.68,N,1001.77,W,8.0,07,2.2,15.1,M,0,M,,
Dez 26, 2016 11:14:31 PM gps.NMEA.utils.ChecksumUtilities getCRC
INFORMATION: Created CRC (65)  for Sentence: $GPGGA,231431,5333.68,N,1001.77,W,8.0,07,2.2,15.1,M,0,M,,
Dez 26, 2016 11:14:32 PM gps.NMEA.utils.ChecksumUtilities getCRC
INFORMATION: Created CRC (64)  for Sentence: $GPRMC,231432,A,5333.68,N,1001.77,W,010.1,335.0,261216,,S
Dez 26, 2016 11:14:32 PM gps.NMEA.utils.ChecksumUtilities getCRC
INFORMATION: Created CRC (78)  for Sentence: $GPRMC,231432,A,5333.76,S,1001.82,W,010.0,231.0,261216,,S
Dez 26, 2016 11:14:32 PM gps.NMEA.utils.ChecksumUtilities getCRC
INFORMATION: Created CRC (78)  for Sentence: $GPRMC,231432,A,5333.76,S,1001.82,W,010.0,231.0,261216,,S
Dez 26, 2016 11:14:32 PM gps.NMEA.utils.ChecksumUtilities getCRC
INFORMATION: Created CRC (6E)  for Sentence: $GPGGA,231432,5333.81,S,1001.95,E,8.0,01,2.1,14.9,M,0,M,,
Dez 26, 2016 11:14:32 PM gps.NMEA.utils.ChecksumUtilities getCRC
INFORMATION: Created CRC (6E)  for Sentence: $GPGGA,231432,5333.81,S,1001.95,E,8.0,01,2.1,14.9,M,0,M,,
Dez 26, 2016 11:14:32 PM gps.NMEA.utils.ChecksumUtilities getCRC
INFORMATION: Created CRC (6E)  for Sentence: $GPGGA,231432,5333.81,S,1001.95,E,8.0,01,2.1,14.9,M,0,M,,
Dez 26, 2016 11:14:33 PM gps.NMEA.utils.ChecksumUtilities getCRC
INFORMATION: Created CRC (64)  for Sentence: $GPRMC,231433,A,5333.81,S,1001.95,E,010.0,122.0,261216,,S
Dez 26, 2016 11:14:33 PM gps.NMEA.utils.ChecksumUtilities getCRC
INFORMATION: Created CRC (7B)  for Sentence: $GPRMC,231433,A,5333.88,S,1001.97,W,010.1,204.0,261216,,S
Dez 26, 2016 11:14:33 PM gps.NMEA.utils.ChecksumUtilities getCRC
INFORMATION: Created CRC (7B)  for Sentence: $GPRMC,231433,A,5333.88,S,1001.97,W,010.1,204.0,261216,,S
Dez 26, 2016 11:14:33 PM gps.NMEA.utils.ChecksumUtilities getCRC
INFORMATION: Created CRC (73)  for Sentence: $GPGGA,231433,5333.88,S,1002.08,W,8.0,11,2.1,14.8,M,0,M,,
Dez 26, 2016 11:14:33 PM gps.NMEA.utils.ChecksumUtilities getCRC
INFORMATION: Created CRC (73)  for Sentence: $GPGGA,231433,5333.88,S,1002.08,W,8.0,11,2.1,14.8,M,0,M,,
Dez 26, 2016 11:14:33 PM gps.NMEA.utils.ChecksumUtilities getCRC
INFORMATION: Created CRC (73)  for Sentence: $GPGGA,231433,5333.88,S,1002.08,W,8.0,11,2.1,14.8,M,0,M,,
Dez 26, 2016 11:14:34 PM gps.NMEA.utils.ChecksumUtilities getCRC
INFORMATION: Created CRC (77)  for Sentence: $GPRMC,231434,A,5333.88,S,1002.08,W,010.1,239.0,261216,,S
Dez 26, 2016 11:14:34 PM gps.NMEA.utils.ChecksumUtilities getCRC
INFORMATION: Created CRC (6E)  for Sentence: $GPRMC,231434,A,5333.92,N,1002.16,W,009.9,338.0,261216,,S
Dez 26, 2016 11:14:34 PM gps.NMEA.utils.ChecksumUtilities getCRC
INFORMATION: Created CRC (6E)  for Sentence: $GPRMC,231434,A,5333.92,N,1002.16,W,009.9,338.0,261216,,S
Dez 26, 2016 11:14:34 PM gps.NMEA.utils.ChecksumUtilities getCRC
INFORMATION: Created CRC (63)  for Sentence: $GPGGA,231434,5333.95,N,1002.26,W,8.0,06,2.3,14.6,M,0,M,,
Dez 26, 2016 11:14:34 PM gps.NMEA.utils.ChecksumUtilities getCRC
INFORMATION: Created CRC (63)  for Sentence: $GPGGA,231434,5333.95,N,1002.26,W,8.0,06,2.3,14.6,M,0,M,,
Dez 26, 2016 11:14:34 PM gps.NMEA.utils.ChecksumUtilities getCRC
INFORMATION: Created CRC (63)  for Sentence: $GPGGA,231434,5333.95,N,1002.26,W,8.0,06,2.3,14.6,M,0,M,,
Dez 26, 2016 11:14:35 PM gps.NMEA.utils.ChecksumUtilities getCRC
INFORMATION: Created CRC (6C)  for Sentence: $GPRMC,231435,A,5333.95,N,1002.26,W,010.0,394.0,261216,,S
Dez 26, 2016 11:14:35 PM gps.NMEA.utils.ChecksumUtilities getCRC
INFORMATION: Created CRC (5B)  for Sentence: $GPRMC,231435,A,5333.98,N,1002.3,W,010.1,389.0,261216,,S
Dez 26, 2016 11:14:35 PM gps.NMEA.utils.ChecksumUtilities getCRC
INFORMATION: Created CRC (5B)  for Sentence: $GPRMC,231435,A,5333.98,N,1002.3,W,010.1,389.0,261216,,S
Dez 26, 2016 11:14:35 PM gps.NMEA.utils.ChecksumUtilities getCRC
INFORMATION: Created CRC (74)  for Sentence: $GPGGA,231435,5333.98,N,1002.38,E,8.0,00,2.2,14.7,M,0,M,,
Dez 26, 2016 11:14:35 PM gps.NMEA.utils.ChecksumUtilities getCRC
INFORMATION: Created CRC (74)  for Sentence: $GPGGA,231435,5333.98,N,1002.38,E,8.0,00,2.2,14.7,M,0,M,,
Dez 26, 2016 11:14:35 PM gps.NMEA.utils.ChecksumUtilities getCRC
INFORMATION: Created CRC (74)  for Sentence: $GPGGA,231435,5333.98,N,1002.38,E,8.0,00,2.2,14.7,M,0,M,,
Dez 26, 2016 11:14:36 PM gps.NMEA.utils.ChecksumUtilities getCRC
INFORMATION: Created CRC (4B)  for Sentence: $GPRMC,231436,A,5333.98,N,1002.38,E,010.1,29.0,261216,,S
Dez 26, 2016 11:14:36 PM gps.NMEA.utils.ChecksumUtilities getCRC
INFORMATION: Created CRC (43)  for Sentence: $GPRMC,231436,A,5334.08,N,1002.39,E,010.0,49.0,261216,,S
Dez 26, 2016 11:14:36 PM gps.NMEA.utils.ChecksumUtilities getCRC
INFORMATION: Created CRC (43)  for Sentence: $GPRMC,231436,A,5334.08,N,1002.39,E,010.0,49.0,261216,,S
Dez 26, 2016 11:14:36 PM gps.NMEA.utils.ChecksumUtilities getCRC
INFORMATION: Created CRC (72)  for Sentence: $GPGGA,231436,5334.19,N,1002.44,E,8.0,09,2.4,14.8,M,0,M,,
Dez 26, 2016 11:14:36 PM gps.NMEA.utils.ChecksumUtilities getCRC
INFORMATION: Created CRC (72)  for Sentence: $GPGGA,231436,5334.19,N,1002.44,E,8.0,09,2.4,14.8,M,0,M,,
Dez 26, 2016 11:14:36 PM gps.NMEA.utils.ChecksumUtilities getCRC
INFORMATION: Created CRC (72)  for Sentence: $GPGGA,231436,5334.19,N,1002.44,E,8.0,09,2.4,14.8,M,0,M,,
Dez 26, 2016 11:14:37 PM gps.NMEA.utils.ChecksumUtilities getCRC
INFORMATION: Created CRC (4E)  for Sentence: $GPRMC,231437,A,5334.19,N,1002.44,E,010.0,83.0,261216,,S
Dez 26, 2016 11:14:37 PM gps.NMEA.utils.ChecksumUtilities getCRC
INFORMATION: Created CRC (48)  for Sentence: $GPRMC,231437,A,5334.25,N,1002.56,E,010.0,23.0,261216,,S
Dez 26, 2016 11:14:37 PM gps.NMEA.utils.ChecksumUtilities getCRC
INFORMATION: Created CRC (48)  for Sentence: $GPRMC,231437,A,5334.25,N,1002.56,E,010.0,23.0,261216,,S
Dez 26, 2016 11:14:37 PM gps.NMEA.utils.ChecksumUtilities getCRC
INFORMATION: Created CRC (71)  for Sentence: $GPGGA,231437,5334.34,N,1002.64,E,8.0,09,2.4,14.7,M,0,M,,
Dez 26, 2016 11:14:37 PM gps.NMEA.utils.ChecksumUtilities getCRC
INFORMATION: Created CRC (71)  for Sentence: $GPGGA,231437,5334.34,N,1002.64,E,8.0,09,2.4,14.7,M,0,M,,
Dez 26, 2016 11:14:37 PM gps.NMEA.utils.ChecksumUtilities getCRC
INFORMATION: Created CRC (71)  for Sentence: $GPGGA,231437,5334.34,N,1002.64,E,8.0,09,2.4,14.7,M,0,M,,
Dez 26, 2016 11:14:38 PM gps.NMEA.utils.ChecksumUtilities getCRC
INFORMATION: Created CRC (47)  for Sentence: $GPRMC,231438,A,5334.34,N,1002.64,E,010.1,76.0,261216,,S
Dez 26, 2016 11:14:38 PM gps.NMEA.utils.ChecksumUtilities getCRC
INFORMATION: Created CRC (4B)  for Sentence: $GPRMC,231438,A,5334.34,N,1002.76,E,010.0,78.0,261216,,S
Dez 26, 2016 11:14:38 PM gps.NMEA.utils.ChecksumUtilities getCRC
INFORMATION: Created CRC (4B)  for Sentence: $GPRMC,231438,A,5334.34,N,1002.76,E,010.0,78.0,261216,,S
Dez 26, 2016 11:14:38 PM gps.NMEA.utils.ChecksumUtilities getCRC
INFORMATION: Created CRC (65)  for Sentence: $GPGGA,231438,5334.37,S,1002.81,E,8.0,11,2.3,14.7,M,0,M,,
Dez 26, 2016 11:14:38 PM gps.NMEA.utils.ChecksumUtilities getCRC
INFORMATION: Created CRC (65)  for Sentence: $GPGGA,231438,5334.37,S,1002.81,E,8.0,11,2.3,14.7,M,0,M,,
Dez 26, 2016 11:14:38 PM gps.NMEA.utils.ChecksumUtilities getCRC
INFORMATION: Created CRC (65)  for Sentence: $GPGGA,231438,5334.37,S,1002.81,E,8.0,11,2.3,14.7,M,0,M,,
Dez 26, 2016 11:14:39 PM gps.NMEA.utils.ChecksumUtilities getCRC
INFORMATION: Created CRC (61)  for Sentence: $GPRMC,231439,A,5334.37,S,1002.81,E,010.0,165.0,261216,,S
Dez 26, 2016 11:14:39 PM gps.NMEA.utils.ChecksumUtilities getCRC
INFORMATION: Created CRC (7B)  for Sentence: $GPRMC,231439,A,5334.38,S,1002.87,W,010.1,277.0,261216,,S
Dez 26, 2016 11:14:39 PM gps.NMEA.utils.ChecksumUtilities getCRC
INFORMATION: Created CRC (7B)  for Sentence: $GPRMC,231439,A,5334.38,S,1002.87,W,010.1,277.0,261216,,S
Dez 26, 2016 11:14:39 PM gps.NMEA.utils.ChecksumUtilities getCRC
INFORMATION: Created CRC (6A)  for Sentence: $GPGGA,231439,5334.46,N,1002.98,W,8.0,10,2.3,14.9,M,0,M,,
Dez 26, 2016 11:14:39 PM gps.NMEA.utils.ChecksumUtilities getCRC
INFORMATION: Created CRC (6A)  for Sentence: $GPGGA,231439,5334.46,N,1002.98,W,8.0,10,2.3,14.9,M,0,M,,
Dez 26, 2016 11:14:39 PM gps.NMEA.utils.ChecksumUtilities getCRC
INFORMATION: Created CRC (6A)  for Sentence: $GPGGA,231439,5334.46,N,1002.98,W,8.0,10,2.3,14.9,M,0,M,,
Dez 26, 2016 11:14:40 PM gps.NMEA.utils.ChecksumUtilities getCRC
INFORMATION: Created CRC (6C)  for Sentence: $GPRMC,231440,A,5334.46,N,1002.98,W,010.1,313.0,261216,,S
Dez 26, 2016 11:14:40 PM gps.NMEA.utils.ChecksumUtilities getCRC
INFORMATION: Created CRC (69)  for Sentence: $GPRMC,231440,A,5334.51,N,1003.01,W,010.0,354.0,261216,,S
Dez 26, 2016 11:14:40 PM gps.NMEA.utils.ChecksumUtilities getCRC
INFORMATION: Created CRC (69)  for Sentence: $GPRMC,231440,A,5334.51,N,1003.01,W,010.0,354.0,261216,,S
Dez 26, 2016 11:14:40 PM gps.NMEA.utils.ChecksumUtilities getCRC
INFORMATION: Created CRC (62)  for Sentence: $GPGGA,231440,5334.58,N,1003.02,W,8.0,11,2.3,15.2,M,0,M,,
Dez 26, 2016 11:14:40 PM gps.NMEA.utils.ChecksumUtilities getCRC
INFORMATION: Created CRC (62)  for Sentence: $GPGGA,231440,5334.58,N,1003.02,W,8.0,11,2.3,15.2,M,0,M,,
Dez 26, 2016 11:14:40 PM gps.NMEA.utils.ChecksumUtilities getCRC
INFORMATION: Created CRC (62)  for Sentence: $GPGGA,231440,5334.58,N,1003.02,W,8.0,11,2.3,15.2,M,0,M,,
Dez 26, 2016 11:14:41 PM gps.NMEA.utils.ChecksumUtilities getCRC
INFORMATION: Created CRC (61)  for Sentence: $GPRMC,231441,A,5334.58,N,1003.02,W,010.0,302.0,261216,,S
Dez 26, 2016 11:14:41 PM gps.NMEA.utils.ChecksumUtilities getCRC
INFORMATION: Created CRC (61)  for Sentence: $GPRMC,231441,A,5334.58,N,1003.02,W,010.0,302.0,261216,,S
Dez 26, 2016 11:14:41 PM gps.NMEA.utils.ChecksumUtilities getCRC
INFORMATION: Created CRC (6F)  for Sentence: $GPRMC,231441,A,5334.71,N,1003.12,W,010.0,342.0,261216,,S
Dez 26, 2016 11:14:41 PM gps.NMEA.utils.ChecksumUtilities getCRC
INFORMATION: Created CRC (6F)  for Sentence: $GPRMC,231441,A,5334.71,N,1003.12,W,010.0,342.0,261216,,S
Dez 26, 2016 11:14:41 PM gps.NMEA.utils.ChecksumUtilities getCRC
INFORMATION: Created CRC (78)  for Sentence: $GPGGA,231441,5334.78,S,1003.21,W,8.0,11,2.5,15.1,M,0,M,,
Dez 26, 2016 11:14:41 PM gps.NMEA.utils.ChecksumUtilities getCRC
INFORMATION: Created CRC (78)  for Sentence: $GPGGA,231441,5334.78,S,1003.21,W,8.0,11,2.5,15.1,M,0,M,,
Dez 26, 2016 11:14:41 PM gps.NMEA.utils.ChecksumUtilities getCRC
INFORMATION: Created CRC (78)  for Sentence: $GPGGA,231441,5334.78,S,1003.21,W,8.0,11,2.5,15.1,M,0,M,,
Dez 26, 2016 11:14:42 PM gps.NMEA.utils.ChecksumUtilities getCRC
INFORMATION: Created CRC (72)  for Sentence: $GPRMC,231442,A,5334.78,S,1003.21,W,010.0,249.0,261216,,S
Dez 26, 2016 11:14:42 PM gps.NMEA.utils.ChecksumUtilities getCRC
INFORMATION: Created CRC (7E)  for Sentence: $GPRMC,231442,A,5334.83,S,1003.29,W,010.0,285.0,261216,,S
Dez 26, 2016 11:14:42 PM gps.NMEA.utils.ChecksumUtilities getCRC
INFORMATION: Created CRC (65)  for Sentence: $GPGGA,231442,5334.97,N,1003.32,W,8.0,00,2.4,15.0,M,0,M,,
Dez 26, 2016 11:14:42 PM gps.NMEA.utils.ChecksumUtilities getCRC
INFORMATION: Created CRC (65)  for Sentence: $GPGGA,231442,5334.97,N,1003.32,W,8.0,00,2.4,15.0,M,0,M,,
Dez 26, 2016 11:14:42 PM gps.NMEA.utils.ChecksumUtilities getCRC
INFORMATION: Created CRC (65)  for Sentence: $GPGGA,231442,5334.97,N,1003.32,W,8.0,00,2.4,15.0,M,0,M,,
Dez 26, 2016 11:14:43 PM gps.NMEA.utils.ChecksumUtilities getCRC
INFORMATION: Created CRC (67)  for Sentence: $GPRMC,231443,A,5334.97,N,1003.32,W,010.0,360.0,261216,,S
Dez 26, 2016 11:14:43 PM gps.NMEA.utils.ChecksumUtilities getCRC
INFORMATION: Created CRC (67)  for Sentence: $GPRMC,231443,A,5334.97,N,1003.32,W,010.0,360.0,261216,,S
Dez 26, 2016 11:14:43 PM gps.NMEA.utils.ChecksumUtilities getCRC
INFORMATION: Created CRC (7B)  for Sentence: $GPRMC,231443,A,5335.06,N,1003.35,E,010.0,5.0,261216,,S
Dez 26, 2016 11:14:43 PM gps.NMEA.utils.ChecksumUtilities getCRC
INFORMATION: Created CRC (7A)  for Sentence: $GPGGA,231443,5335.12,N,1003.44,E,8.0,09,2.5,14.8,M,0,M,,
Dez 26, 2016 11:14:43 PM gps.NMEA.utils.ChecksumUtilities getCRC
INFORMATION: Created CRC (7A)  for Sentence: $GPGGA,231443,5335.12,N,1003.44,E,8.0,09,2.5,14.8,M,0,M,,
Dez 26, 2016 11:14:43 PM gps.NMEA.utils.ChecksumUtilities getCRC
INFORMATION: Created CRC (7A)  for Sentence: $GPGGA,231443,5335.12,N,1003.44,E,8.0,09,2.5,14.8,M,0,M,,
Dez 26, 2016 11:14:44 PM gps.NMEA.utils.ChecksumUtilities getCRC
INFORMATION: Created CRC (4F)  for Sentence: $GPRMC,231444,A,5335.12,N,1003.44,E,010.0,50.0,261216,,S
Dez 26, 2016 11:14:44 PM gps.NMEA.utils.ChecksumUtilities getCRC
INFORMATION: Created CRC (4F)  for Sentence: $GPRMC,231444,A,5335.12,N,1003.44,E,010.0,50.0,261216,,S
Dez 26, 2016 11:14:44 PM gps.NMEA.utils.ChecksumUtilities getCRC
INFORMATION: Created CRC (6B)  for Sentence: $GPRMC,231444,A,5335.12,N,1003.53,W,010.1,316.0,261216,,S
Dez 26, 2016 11:14:44 PM gps.NMEA.utils.ChecksumUtilities getCRC
INFORMATION: Created CRC (78)  for Sentence: $GPGGA,231444,5335.21,N,1003.58,E,8.0,10,2.4,14.9,M,0,M,,
Dez 26, 2016 11:14:44 PM gps.NMEA.utils.ChecksumUtilities getCRC
INFORMATION: Created CRC (78)  for Sentence: $GPGGA,231444,5335.21,N,1003.58,E,8.0,10,2.4,14.9,M,0,M,,
Dez 26, 2016 11:14:44 PM gps.NMEA.utils.ChecksumUtilities getCRC
INFORMATION: Created CRC (78)  for Sentence: $GPGGA,231444,5335.21,N,1003.58,E,8.0,10,2.4,14.9,M,0,M,,
Dez 26, 2016 11:14:45 PM gps.NMEA.utils.ChecksumUtilities getCRC
INFORMATION: Created CRC (4E)  for Sentence: $GPRMC,231445,A,5335.21,N,1003.58,E,010.0,19.0,261216,,S
Dez 26, 2016 11:14:45 PM gps.NMEA.utils.ChecksumUtilities getCRC
INFORMATION: Created CRC (4E)  for Sentence: $GPRMC,231445,A,5335.21,N,1003.58,E,010.0,19.0,261216,,S
Dez 26, 2016 11:14:45 PM gps.NMEA.utils.ChecksumUtilities getCRC
INFORMATION: Created CRC (4F)  for Sentence: $GPRMC,231445,A,5335.28,N,1003.66,E,010.0,58.0,261216,,S
Dez 26, 2016 11:14:45 PM gps.NMEA.utils.ChecksumUtilities getCRC
INFORMATION: Created CRC (7F)  for Sentence: $GPGGA,231445,5335.28,N,1003.74,E,8.0,11,2.5,14.8,M,0,M,,
Dez 26, 2016 11:14:45 PM gps.NMEA.utils.ChecksumUtilities getCRC
INFORMATION: Created CRC (7F)  for Sentence: $GPGGA,231445,5335.28,N,1003.74,E,8.0,11,2.5,14.8,M,0,M,,
Dez 26, 2016 11:14:45 PM gps.NMEA.utils.ChecksumUtilities getCRC
INFORMATION: Created CRC (7F)  for Sentence: $GPGGA,231445,5335.28,N,1003.74,E,8.0,11,2.5,14.8,M,0,M,,
Dez 26, 2016 11:14:46 PM gps.NMEA.utils.ChecksumUtilities getCRC
INFORMATION: Created CRC (4E)  for Sentence: $GPRMC,231446,A,5335.28,N,1003.74,E,010.0,48.0,261216,,S
Dez 26, 2016 11:14:46 PM gps.NMEA.utils.ChecksumUtilities getCRC
INFORMATION: Created CRC (4E)  for Sentence: $GPRMC,231446,A,5335.28,N,1003.74,E,010.0,48.0,261216,,S
Dez 26, 2016 11:14:46 PM gps.NMEA.utils.ChecksumUtilities getCRC
INFORMATION: Created CRC (4D)  for Sentence: $GPRMC,231446,A,5335.38,N,1003.88,E,010.0,94.0,261216,,S
Dez 26, 2016 11:14:46 PM gps.NMEA.utils.ChecksumUtilities getCRC
INFORMATION: Created CRC (78)  for Sentence: $GPGGA,231446,5335.49,N,1003.94,E,8.0,04,2.7,15.2,M,0,M,,
Dez 26, 2016 11:14:46 PM gps.NMEA.utils.ChecksumUtilities getCRC
INFORMATION: Created CRC (78)  for Sentence: $GPGGA,231446,5335.49,N,1003.94,E,8.0,04,2.7,15.2,M,0,M,,
Dez 26, 2016 11:14:46 PM gps.NMEA.utils.ChecksumUtilities getCRC
INFORMATION: Created CRC (78)  for Sentence: $GPGGA,231446,5335.49,N,1003.94,E,8.0,04,2.7,15.2,M,0,M,,
Dez 26, 2016 11:14:47 PM gps.NMEA.utils.ChecksumUtilities getCRC
INFORMATION: Created CRC (45)  for Sentence: $GPRMC,231447,A,5335.49,N,1003.94,E,010.0,69.0,261216,,S
Dez 26, 2016 11:14:47 PM gps.NMEA.utils.ChecksumUtilities getCRC
INFORMATION: Created CRC (45)  for Sentence: $GPRMC,231447,A,5335.49,N,1003.94,E,010.0,69.0,261216,,S
Dez 26, 2016 11:14:47 PM gps.NMEA.utils.ChecksumUtilities getCRC
INFORMATION: Created CRC (6B)  for Sentence: $GPRMC,231447,A,5335.58,S,1004.07,E,010.1,145.0,261216,,S
Dez 26, 2016 11:14:47 PM gps.NMEA.utils.ChecksumUtilities getCRC
INFORMATION: Created CRC (6C)  for Sentence: $GPGGA,231447,5335.72,S,1004.09,E,8.0,06,2.5,15.1,M,0,M,,
Dez 26, 2016 11:14:47 PM gps.NMEA.utils.ChecksumUtilities getCRC
INFORMATION: Created CRC (6C)  for Sentence: $GPGGA,231447,5335.72,S,1004.09,E,8.0,06,2.5,15.1,M,0,M,,
Dez 26, 2016 11:14:47 PM gps.NMEA.utils.ChecksumUtilities getCRC
INFORMATION: Created CRC (6C)  for Sentence: $GPGGA,231447,5335.72,S,1004.09,E,8.0,06,2.5,15.1,M,0,M,,
Dez 26, 2016 11:14:48 PM gps.NMEA.utils.ChecksumUtilities getCRC
INFORMATION: Created CRC (61)  for Sentence: $GPRMC,231448,A,5335.72,S,1004.09,E,010.1,175.0,261216,,S
Dez 26, 2016 11:14:48 PM gps.NMEA.utils.ChecksumUtilities getCRC
INFORMATION: Created CRC (61)  for Sentence: $GPRMC,231448,A,5335.72,S,1004.09,E,010.1,175.0,261216,,S
Dez 26, 2016 11:14:48 PM gps.NMEA.utils.ChecksumUtilities getCRC
INFORMATION: Created CRC (78)  for Sentence: $GPRMC,231448,A,5335.78,N,1004.12,E,010.0,6.0,261216,,S
Dez 26, 2016 11:14:48 PM gps.NMEA.utils.ChecksumUtilities getCRC
INFORMATION: Created CRC (53)  for Sentence: $GPGGA,231448,5335.8,S,1004.17,E,8.0,01,2.5,15.4,M,0,M,,
Dez 26, 2016 11:14:48 PM gps.NMEA.utils.ChecksumUtilities getCRC
INFORMATION: Created CRC (53)  for Sentence: $GPGGA,231448,5335.8,S,1004.17,E,8.0,01,2.5,15.4,M,0,M,,
Dez 26, 2016 11:14:48 PM gps.NMEA.utils.ChecksumUtilities getCRC
INFORMATION: Created CRC (53)  for Sentence: $GPGGA,231448,5335.8,S,1004.17,E,8.0,01,2.5,15.4,M,0,M,,
Dez 26, 2016 11:14:49 PM gps.NMEA.utils.ChecksumUtilities getCRC
INFORMATION: Created CRC (57)  for Sentence: $GPRMC,231449,A,5335.8,S,1004.17,E,010.1,143.0,261216,,S
Dez 26, 2016 11:14:49 PM gps.NMEA.utils.ChecksumUtilities getCRC
INFORMATION: Created CRC (57)  for Sentence: $GPRMC,231449,A,5335.8,S,1004.17,E,010.1,143.0,261216,,S
Dez 26, 2016 11:14:49 PM gps.NMEA.utils.ChecksumUtilities getCRC
INFORMATION: Created CRC (7B)  for Sentence: $GPRMC,231449,A,5335.8,N,1004.28,E,010.1,83.0,261216,,S
Dez 26, 2016 11:14:49 PM gps.NMEA.utils.ChecksumUtilities getCRC
INFORMATION: Created CRC (56)  for Sentence: $GPGGA,231449,5335.8,S,1004.36,E,8.0,07,2.5,15.5,M,0,M,,
Dez 26, 2016 11:14:49 PM gps.NMEA.utils.ChecksumUtilities getCRC
INFORMATION: Created CRC (56)  for Sentence: $GPGGA,231449,5335.8,S,1004.36,E,8.0,07,2.5,15.5,M,0,M,,
Dez 26, 2016 11:14:49 PM gps.NMEA.utils.ChecksumUtilities getCRC
INFORMATION: Created CRC (56)  for Sentence: $GPGGA,231449,5335.8,S,1004.36,E,8.0,07,2.5,15.5,M,0,M,,
Dez 26, 2016 11:14:50 PM gps.NMEA.utils.ChecksumUtilities getCRC
INFORMATION: Created CRC (5A)  for Sentence: $GPRMC,231450,A,5335.8,S,1004.36,E,010.0,188.0,261216,,S
Dez 26, 2016 11:14:50 PM gps.NMEA.utils.ChecksumUtilities getCRC
INFORMATION: Created CRC (5A)  for Sentence: $GPRMC,231450,A,5335.8,S,1004.36,E,010.0,188.0,261216,,S
Dez 26, 2016 11:14:50 PM gps.NMEA.utils.ChecksumUtilities getCRC
INFORMATION: Created CRC (4D)  for Sentence: $GPRMC,231450,A,5335.88,N,1004.43,E,010.0,10.0,261216,,S
Dez 26, 2016 11:14:50 PM gps.NMEA.utils.ChecksumUtilities getCRC
INFORMATION: Created CRC (4D)  for Sentence: $GPRMC,231450,A,5335.88,N,1004.43,E,010.0,10.0,261216,,S
Dez 26, 2016 11:14:50 PM gps.NMEA.utils.ChecksumUtilities getCRC
INFORMATION: Created CRC (75)  for Sentence: $GPGGA,231450,5336.02,N,1004.48,E,8.0,04,2.6,15.3,M,0,M,,
Dez 26, 2016 11:14:50 PM gps.NMEA.utils.ChecksumUtilities getCRC
INFORMATION: Created CRC (75)  for Sentence: $GPGGA,231450,5336.02,N,1004.48,E,8.0,04,2.6,15.3,M,0,M,,
Dez 26, 2016 11:14:50 PM gps.NMEA.utils.ChecksumUtilities getCRC
INFORMATION: Created CRC (75)  for Sentence: $GPGGA,231450,5336.02,N,1004.48,E,8.0,04,2.6,15.3,M,0,M,,
Dez 26, 2016 11:14:51 PM gps.NMEA.utils.ChecksumUtilities getCRC
INFORMATION: Created CRC (4D)  for Sentence: $GPRMC,231451,A,5336.02,N,1004.48,E,010.0,82.0,261216,,S
Dez 26, 2016 11:14:51 PM gps.NMEA.utils.ChecksumUtilities getCRC
INFORMATION: Created CRC (48)  for Sentence: $GPRMC,231451,A,5336.07,N,1004.58,E,010.1,82.0,261216,,S
Dez 26, 2016 11:14:51 PM gps.NMEA.utils.ChecksumUtilities getCRC
INFORMATION: Created CRC (48)  for Sentence: $GPRMC,231451,A,5336.07,N,1004.58,E,010.1,82.0,261216,,S
Dez 26, 2016 11:14:51 PM gps.NMEA.utils.ChecksumUtilities getCRC
INFORMATION: Created CRC (7B)  for Sentence: $GPGGA,231451,5336.07,N,1004.72,E,8.0,02,2.4,15.4,M,0,M,,
Dez 26, 2016 11:14:51 PM gps.NMEA.utils.ChecksumUtilities getCRC
INFORMATION: Created CRC (7B)  for Sentence: $GPGGA,231451,5336.07,N,1004.72,E,8.0,02,2.4,15.4,M,0,M,,
Dez 26, 2016 11:14:51 PM gps.NMEA.utils.ChecksumUtilities getCRC
INFORMATION: Created CRC (7B)  for Sentence: $GPGGA,231451,5336.07,N,1004.72,E,8.0,02,2.4,15.4,M,0,M,,
Dez 26, 2016 11:14:52 PM gps.NMEA.utils.ChecksumUtilities getCRC
INFORMATION: Created CRC (48)  for Sentence: $GPRMC,231452,A,5336.07,N,1004.72,E,010.0,33.0,261216,,S
Dez 26, 2016 11:14:52 PM gps.NMEA.utils.ChecksumUtilities getCRC
INFORMATION: Created CRC (52)  for Sentence: $GPRMC,231452,A,5336.22,N,1004.8,W,010.0,389.0,261216,,S
Dez 26, 2016 11:14:52 PM gps.NMEA.utils.ChecksumUtilities getCRC
INFORMATION: Created CRC (52)  for Sentence: $GPRMC,231452,A,5336.22,N,1004.8,W,010.0,389.0,261216,,S
Dez 26, 2016 11:14:52 PM gps.NMEA.utils.ChecksumUtilities getCRC
INFORMATION: Created CRC (52)  for Sentence: $GPRMC,231452,A,5336.22,N,1004.8,W,010.0,389.0,261216,,S
Dez 26, 2016 11:14:52 PM gps.NMEA.utils.ChecksumUtilities getCRC
INFORMATION: Created CRC (74)  for Sentence: $GPGGA,231452,5336.26,N,1004.84,E,8.0,02,2.4,15.2,M,0,M,,
Dez 26, 2016 11:14:52 PM gps.NMEA.utils.ChecksumUtilities getCRC
INFORMATION: Created CRC (74)  for Sentence: $GPGGA,231452,5336.26,N,1004.84,E,8.0,02,2.4,15.2,M,0,M,,
Dez 26, 2016 11:14:52 PM gps.NMEA.utils.ChecksumUtilities getCRC
INFORMATION: Created CRC (74)  for Sentence: $GPGGA,231452,5336.26,N,1004.84,E,8.0,02,2.4,15.2,M,0,M,,
Dez 26, 2016 11:14:53 PM gps.NMEA.utils.ChecksumUtilities getCRC
INFORMATION: Created CRC (44)  for Sentence: $GPRMC,231453,A,5336.38,N,1004.88,E,010.1,14.0,261216,,S
Dez 26, 2016 11:14:53 PM gps.NMEA.utils.ChecksumUtilities getCRC
INFORMATION: Created CRC (44)  for Sentence: $GPRMC,231453,A,5336.38,N,1004.88,E,010.1,14.0,261216,,S
Dez 26, 2016 11:14:53 PM gps.NMEA.utils.ChecksumUtilities getCRC
INFORMATION: Created CRC (4B)  for Sentence: $GPGGA,231453,5336.46,N,1005.0,E,8.0,11,2.5,15.4,M,0,M,,
Dez 26, 2016 11:14:53 PM gps.NMEA.utils.ChecksumUtilities getCRC
INFORMATION: Created CRC (4B)  for Sentence: $GPGGA,231453,5336.46,N,1005.0,E,8.0,11,2.5,15.4,M,0,M,,
Dez 26, 2016 11:14:53 PM gps.NMEA.utils.ChecksumUtilities getCRC
INFORMATION: Created CRC (4B)  for Sentence: $GPGGA,231453,5336.46,N,1005.0,E,8.0,11,2.5,15.4,M,0,M,,
Dez 26, 2016 11:14:54 PM gps.NMEA.utils.ChecksumUtilities getCRC
INFORMATION: Created CRC (7E)  for Sentence: $GPRMC,231454,A,5336.46,N,1005.0,E,010.1,22.0,261216,,S
Dez 26, 2016 11:14:54 PM gps.NMEA.utils.ChecksumUtilities getCRC
INFORMATION: Created CRC (42)  for Sentence: $GPRMC,231454,A,5336.52,N,1005.08,E,010.1,45.0,261216,,S
Dez 26, 2016 11:14:54 PM gps.NMEA.utils.ChecksumUtilities getCRC
INFORMATION: Created CRC (42)  for Sentence: $GPRMC,231454,A,5336.52,N,1005.08,E,010.1,45.0,261216,,S
Dez 26, 2016 11:14:54 PM gps.NMEA.utils.ChecksumUtilities getCRC
INFORMATION: Created CRC (7D)  for Sentence: $GPGGA,231454,5336.62,N,1005.15,E,8.0,11,2.6,15.4,M,0,M,,
Dez 26, 2016 11:14:54 PM gps.NMEA.utils.ChecksumUtilities getCRC
INFORMATION: Created CRC (7D)  for Sentence: $GPGGA,231454,5336.62,N,1005.15,E,8.0,11,2.6,15.4,M,0,M,,
Dez 26, 2016 11:14:54 PM gps.NMEA.utils.ChecksumUtilities getCRC
INFORMATION: Created CRC (7D)  for Sentence: $GPGGA,231454,5336.62,N,1005.15,E,8.0,11,2.6,15.4,M,0,M,,
Dez 26, 2016 11:14:55 PM gps.NMEA.utils.ChecksumUtilities getCRC
INFORMATION: Created CRC (4B)  for Sentence: $GPRMC,231455,A,5336.62,N,1005.15,E,010.0,70.0,261216,,S
Dez 26, 2016 11:14:55 PM gps.NMEA.utils.ChecksumUtilities getCRC
INFORMATION: Created CRC (73)  for Sentence: $GPRMC,231455,A,5336.71,N,1005.2,E,010.1,82.0,261216,,S
Dez 26, 2016 11:14:55 PM gps.NMEA.utils.ChecksumUtilities getCRC
INFORMATION: Created CRC (73)  for Sentence: $GPRMC,231455,A,5336.71,N,1005.2,E,010.1,82.0,261216,,S
Dez 26, 2016 11:14:55 PM gps.NMEA.utils.ChecksumUtilities getCRC
INFORMATION: Created CRC (65)  for Sentence: $GPGGA,231455,5336.79,S,1005.32,E,8.0,03,2.8,15.2,M,0,M,,
Dez 26, 2016 11:14:55 PM gps.NMEA.utils.ChecksumUtilities getCRC
INFORMATION: Created CRC (65)  for Sentence: $GPGGA,231455,5336.79,S,1005.32,E,8.0,03,2.8,15.2,M,0,M,,
Dez 26, 2016 11:14:55 PM gps.NMEA.utils.ChecksumUtilities getCRC
INFORMATION: Created CRC (65)  for Sentence: $GPGGA,231455,5336.79,S,1005.32,E,8.0,03,2.8,15.2,M,0,M,,
Dez 26, 2016 11:14:56 PM gps.NMEA.utils.ChecksumUtilities getCRC
INFORMATION: Created CRC (67)  for Sentence: $GPRMC,231456,A,5336.79,S,1005.32,E,010.2,118.0,261216,,S
Dez 26, 2016 11:14:56 PM gps.NMEA.utils.ChecksumUtilities getCRC
INFORMATION: Created CRC (7C)  for Sentence: $GPRMC,231456,A,5336.91,S,1005.32,W,010.1,235.0,261216,,S
Dez 26, 2016 11:14:56 PM gps.NMEA.utils.ChecksumUtilities getCRC
INFORMATION: Created CRC (7C)  for Sentence: $GPRMC,231456,A,5336.91,S,1005.32,W,010.1,235.0,261216,,S
Dez 26, 2016 11:14:56 PM gps.NMEA.utils.ChecksumUtilities getCRC
INFORMATION: Created CRC (7E)  for Sentence: $GPGGA,231456,5337.01,S,1005.35,W,8.0,01,2.9,15.2,M,0,M,,
Dez 26, 2016 11:14:56 PM gps.NMEA.utils.ChecksumUtilities getCRC
INFORMATION: Created CRC (7E)  for Sentence: $GPGGA,231456,5337.01,S,1005.35,W,8.0,01,2.9,15.2,M,0,M,,
Dez 26, 2016 11:14:56 PM gps.NMEA.utils.ChecksumUtilities getCRC
INFORMATION: Created CRC (7E)  for Sentence: $GPGGA,231456,5337.01,S,1005.35,W,8.0,01,2.9,15.2,M,0,M,,
Dez 26, 2016 11:14:57 PM gps.NMEA.utils.ChecksumUtilities getCRC
INFORMATION: Created CRC (7C)  for Sentence: $GPRMC,231457,A,5337.01,S,1005.35,W,010.0,218.0,261216,,S
Dez 26, 2016 11:14:57 PM gps.NMEA.utils.ChecksumUtilities getCRC
INFORMATION: Created CRC (76)  for Sentence: $GPRMC,231457,A,5337.15,S,1005.45,W,010.0,232.0,261216,,S
Dez 26, 2016 11:14:57 PM gps.NMEA.utils.ChecksumUtilities getCRC
INFORMATION: Created CRC (76)  for Sentence: $GPRMC,231457,A,5337.15,S,1005.45,W,010.0,232.0,261216,,S
Dez 26, 2016 11:14:57 PM gps.NMEA.utils.ChecksumUtilities getCRC
INFORMATION: Created CRC (73)  for Sentence: $GPGGA,231457,5337.22,S,1005.58,W,8.0,06,2.9,15.3,M,0,M,,
Dez 26, 2016 11:14:57 PM gps.NMEA.utils.ChecksumUtilities getCRC
INFORMATION: Created CRC (73)  for Sentence: $GPGGA,231457,5337.22,S,1005.58,W,8.0,06,2.9,15.3,M,0,M,,
Dez 26, 2016 11:14:57 PM gps.NMEA.utils.ChecksumUtilities getCRC
INFORMATION: Created CRC (73)  for Sentence: $GPGGA,231457,5337.22,S,1005.58,W,8.0,06,2.9,15.3,M,0,M,,
Dez 26, 2016 11:14:58 PM gps.NMEA.utils.ChecksumUtilities getCRC
INFORMATION: Created CRC (72)  for Sentence: $GPRMC,231458,A,5337.22,S,1005.58,W,010.2,211.0,261216,,S
Dez 26, 2016 11:14:58 PM gps.NMEA.utils.ChecksumUtilities getCRC
INFORMATION: Created CRC (6E)  for Sentence: $GPRMC,231458,A,5337.24,S,1005.62,E,010.1,101.0,261216,,S
Dez 26, 2016 11:14:58 PM gps.NMEA.utils.ChecksumUtilities getCRC
INFORMATION: Created CRC (6E)  for Sentence: $GPRMC,231458,A,5337.24,S,1005.62,E,010.1,101.0,261216,,S
Dez 26, 2016 11:14:58 PM gps.NMEA.utils.ChecksumUtilities getCRC
INFORMATION: Created CRC (6D)  for Sentence: $GPGGA,231458,5337.24,S,1005.76,E,8.0,10,3.1,15.4,M,0,M,,
Dez 26, 2016 11:14:58 PM gps.NMEA.utils.ChecksumUtilities getCRC
INFORMATION: Created CRC (6D)  for Sentence: $GPGGA,231458,5337.24,S,1005.76,E,8.0,10,3.1,15.4,M,0,M,,
Dez 26, 2016 11:14:58 PM gps.NMEA.utils.ChecksumUtilities getCRC
INFORMATION: Created CRC (6D)  for Sentence: $GPGGA,231458,5337.24,S,1005.76,E,8.0,10,3.1,15.4,M,0,M,,
Dez 26, 2016 11:14:59 PM gps.NMEA.utils.ChecksumUtilities getCRC
INFORMATION: Created CRC (68)  for Sentence: $GPRMC,231459,A,5337.24,S,1005.76,E,010.1,174.0,261216,,S
Dez 26, 2016 11:14:59 PM gps.NMEA.utils.ChecksumUtilities getCRC
INFORMATION: Created CRC (69)  for Sentence: $GPRMC,231459,A,5337.35,S,1005.78,E,010.2,169.0,261216,,S
Dez 26, 2016 11:14:59 PM gps.NMEA.utils.ChecksumUtilities getCRC
INFORMATION: Created CRC (69)  for Sentence: $GPRMC,231459,A,5337.35,S,1005.78,E,010.2,169.0,261216,,S
Dez 26, 2016 11:14:59 PM gps.NMEA.utils.ChecksumUtilities getCRC
INFORMATION: Created CRC (52)  for Sentence: $GPGGA,231459,5337.44,S,1005.9,E,8.0,05,3.2,15.3,M,0,M,,
Dez 26, 2016 11:14:59 PM gps.NMEA.utils.ChecksumUtilities getCRC
INFORMATION: Created CRC (52)  for Sentence: $GPGGA,231459,5337.44,S,1005.9,E,8.0,05,3.2,15.3,M,0,M,,
Dez 26, 2016 11:14:59 PM gps.NMEA.utils.ChecksumUtilities getCRC
INFORMATION: Created CRC (52)  for Sentence: $GPGGA,231459,5337.44,S,1005.9,E,8.0,05,3.2,15.3,M,0,M,,
Dez 26, 2016 11:15:00 PM gps.NMEA.utils.ChecksumUtilities getCRC
INFORMATION: Created CRC (5A)  for Sentence: $GPRMC,231500,A,5337.44,S,1005.9,E,010.1,131.0,261216,,S
Dez 26, 2016 11:15:00 PM gps.NMEA.utils.ChecksumUtilities getCRC
INFORMATION: Created CRC (5A)  for Sentence: $GPRMC,231500,A,5337.44,S,1005.9,E,010.1,131.0,261216,,S
Dez 26, 2016 11:15:00 PM gps.NMEA.utils.ChecksumUtilities getCRC
INFORMATION: Created CRC (74)  for Sentence: $GPRMC,231500,A,5337.54,S,1005.99,W,010.1,227.0,261216,,S
Dez 26, 2016 11:15:00 PM gps.NMEA.utils.ChecksumUtilities getCRC
INFORMATION: Created CRC (66)  for Sentence: $GPGGA,231500,5337.54,S,1006.08,E,8.0,04,3.2,14.9,M,0,M,,
Dez 26, 2016 11:15:00 PM gps.NMEA.utils.ChecksumUtilities getCRC
INFORMATION: Created CRC (66)  for Sentence: $GPGGA,231500,5337.54,S,1006.08,E,8.0,04,3.2,14.9,M,0,M,,
Dez 26, 2016 11:15:00 PM gps.NMEA.utils.ChecksumUtilities getCRC
INFORMATION: Created CRC (66)  for Sentence: $GPGGA,231500,5337.54,S,1006.08,E,8.0,04,3.2,14.9,M,0,M,,
Dez 26, 2016 11:15:01 PM gps.NMEA.utils.ChecksumUtilities getCRC
INFORMATION: Created CRC (6F)  for Sentence: $GPRMC,231501,A,5337.54,S,1006.08,E,010.0,140.0,261216,,S
Dez 26, 2016 11:15:01 PM gps.NMEA.utils.ChecksumUtilities getCRC
INFORMATION: Created CRC (6F)  for Sentence: $GPRMC,231501,A,5337.54,S,1006.08,E,010.0,140.0,261216,,S
Dez 26, 2016 11:15:01 PM gps.NMEA.utils.ChecksumUtilities getCRC
INFORMATION: Created CRC (44)  for Sentence: $GPRMC,231501,A,5337.68,N,1006.12,E,010.2,50.0,261216,,S
Dez 26, 2016 11:15:01 PM gps.NMEA.utils.ChecksumUtilities getCRC
INFORMATION: Created CRC (53)  for Sentence: $GPGGA,231501,5337.71,S,1006.2,E,8.0,04,3.1,15.2,M,0,M,,
Dez 26, 2016 11:15:01 PM gps.NMEA.utils.ChecksumUtilities getCRC
INFORMATION: Created CRC (53)  for Sentence: $GPGGA,231501,5337.71,S,1006.2,E,8.0,04,3.1,15.2,M,0,M,,
Dez 26, 2016 11:15:01 PM gps.NMEA.utils.ChecksumUtilities getCRC
INFORMATION: Created CRC (53)  for Sentence: $GPGGA,231501,5337.71,S,1006.2,E,8.0,04,3.1,15.2,M,0,M,,
Dez 26, 2016 11:15:02 PM gps.NMEA.utils.ChecksumUtilities getCRC
INFORMATION: Created CRC (55)  for Sentence: $GPRMC,231502,A,5337.71,S,1006.2,E,010.2,131.0,261216,,S
Dez 26, 2016 11:15:02 PM gps.NMEA.utils.ChecksumUtilities getCRC
INFORMATION: Created CRC (55)  for Sentence: $GPRMC,231502,A,5337.71,S,1006.2,E,010.2,131.0,261216,,S
Dez 26, 2016 11:15:02 PM gps.NMEA.utils.ChecksumUtilities getCRC
INFORMATION: Created CRC (61)  for Sentence: $GPRMC,231502,A,5337.72,S,1006.22,E,010.1,140.0,261216,,S
Dez 26, 2016 11:15:02 PM gps.NMEA.utils.ChecksumUtilities getCRC
INFORMATION: Created CRC (6A)  for Sentence: $GPGGA,231502,5337.79,S,1006.32,E,8.0,04,3.0,15.2,M,0,M,,
Dez 26, 2016 11:15:02 PM gps.NMEA.utils.ChecksumUtilities getCRC
INFORMATION: Created CRC (6A)  for Sentence: $GPGGA,231502,5337.79,S,1006.32,E,8.0,04,3.0,15.2,M,0,M,,
Dez 26, 2016 11:15:02 PM gps.NMEA.utils.ChecksumUtilities getCRC
INFORMATION: Created CRC (6A)  for Sentence: $GPGGA,231502,5337.79,S,1006.32,E,8.0,04,3.0,15.2,M,0,M,,
Dez 26, 2016 11:15:03 PM gps.NMEA.utils.ChecksumUtilities getCRC
INFORMATION: Created CRC (68)  for Sentence: $GPRMC,231503,A,5337.79,S,1006.32,E,010.1,106.0,261216,,S
Dez 26, 2016 11:15:03 PM gps.NMEA.utils.ChecksumUtilities getCRC
INFORMATION: Created CRC (68)  for Sentence: $GPRMC,231503,A,5337.79,S,1006.32,E,010.1,106.0,261216,,S
Dez 26, 2016 11:15:03 PM gps.NMEA.utils.ChecksumUtilities getCRC
INFORMATION: Created CRC (50)  for Sentence: $GPRMC,231503,A,5337.81,S,1006.4,E,010.1,195.0,261216,,S
Dez 26, 2016 11:15:03 PM gps.NMEA.utils.ChecksumUtilities getCRC
INFORMATION: Created CRC (50)  for Sentence: $GPRMC,231503,A,5337.81,S,1006.4,E,010.1,195.0,261216,,S
Dez 26, 2016 11:15:03 PM gps.NMEA.utils.ChecksumUtilities getCRC
INFORMATION: Created CRC (77)  for Sentence: $GPGGA,231503,5337.85,N,1006.43,E,8.0,09,2.9,15.3,M,0,M,,
Dez 26, 2016 11:15:03 PM gps.NMEA.utils.ChecksumUtilities getCRC
INFORMATION: Created CRC (77)  for Sentence: $GPGGA,231503,5337.85,N,1006.43,E,8.0,09,2.9,15.3,M,0,M,,
Dez 26, 2016 11:15:03 PM gps.NMEA.utils.ChecksumUtilities getCRC
INFORMATION: Created CRC (77)  for Sentence: $GPGGA,231503,5337.85,N,1006.43,E,8.0,09,2.9,15.3,M,0,M,,
Dez 26, 2016 11:15:04 PM gps.NMEA.utils.ChecksumUtilities getCRC
INFORMATION: Created CRC (4A)  for Sentence: $GPRMC,231504,A,5337.85,N,1006.43,E,010.1,82.0,261216,,S
Dez 26, 2016 11:15:04 PM gps.NMEA.utils.ChecksumUtilities getCRC
INFORMATION: Created CRC (6D)  for Sentence: $GPRMC,231504,A,5337.99,S,1006.55,E,010.1,192.0,261216,,S
Dez 26, 2016 11:15:04 PM gps.NMEA.utils.ChecksumUtilities getCRC
INFORMATION: Created CRC (4F)  for Sentence: $GPGGA,231504,5338.1,N,1006.68,E,8.0,00,3.1,15.6,M,0,M,,
Dez 26, 2016 11:15:04 PM gps.NMEA.utils.ChecksumUtilities getCRC
INFORMATION: Created CRC (4F)  for Sentence: $GPGGA,231504,5338.1,N,1006.68,E,8.0,00,3.1,15.6,M,0,M,,
Dez 26, 2016 11:15:04 PM gps.NMEA.utils.ChecksumUtilities getCRC
INFORMATION: Created CRC (4F)  for Sentence: $GPGGA,231504,5338.1,N,1006.68,E,8.0,00,3.1,15.6,M,0,M,,
Dez 26, 2016 11:15:05 PM gps.NMEA.utils.ChecksumUtilities getCRC
INFORMATION: Created CRC (79)  for Sentence: $GPRMC,231505,A,5338.1,N,1006.68,E,010.1,13.0,261216,,S
Dez 26, 2016 11:15:05 PM gps.NMEA.utils.ChecksumUtilities getCRC
INFORMATION: Created CRC (79)  for Sentence: $GPRMC,231505,A,5338.1,N,1006.68,E,010.1,13.0,261216,,S
Dez 26, 2016 11:15:05 PM gps.NMEA.utils.ChecksumUtilities getCRC
INFORMATION: Created CRC (70)  for Sentence: $GPRMC,231505,A,5338.14,N,1006.7,E,010.1,71.0,261216,,S
Dez 26, 2016 11:15:05 PM gps.NMEA.utils.ChecksumUtilities getCRC
INFORMATION: Created CRC (6D)  for Sentence: $GPGGA,231505,5338.26,S,1006.76,E,8.0,03,3.3,15.3,M,0,M,,
Dez 26, 2016 11:15:05 PM gps.NMEA.utils.ChecksumUtilities getCRC
INFORMATION: Created CRC (6D)  for Sentence: $GPGGA,231505,5338.26,S,1006.76,E,8.0,03,3.3,15.3,M,0,M,,
Dez 26, 2016 11:15:05 PM gps.NMEA.utils.ChecksumUtilities getCRC
INFORMATION: Created CRC (6D)  for Sentence: $GPGGA,231505,5338.26,S,1006.76,E,8.0,03,3.3,15.3,M,0,M,,
Dez 26, 2016 11:15:06 PM gps.NMEA.utils.ChecksumUtilities getCRC
INFORMATION: Created CRC (68)  for Sentence: $GPRMC,231506,A,5338.26,S,1006.76,E,010.1,142.0,261216,,S
Dez 26, 2016 11:15:06 PM gps.NMEA.utils.ChecksumUtilities getCRC
INFORMATION: Created CRC (68)  for Sentence: $GPRMC,231506,A,5338.26,S,1006.76,E,010.1,142.0,261216,,S
Dez 26, 2016 11:15:06 PM gps.NMEA.utils.ChecksumUtilities getCRC
INFORMATION: Created CRC (60)  for Sentence: $GPRMC,231506,A,5338.32,S,1006.85,E,010.1,134.0,261216,,S
Dez 26, 2016 11:15:06 PM gps.NMEA.utils.ChecksumUtilities getCRC
INFORMATION: Created CRC (6B)  for Sentence: $GPGGA,231506,5338.42,S,1006.92,E,8.0,09,3.3,15.4,M,0,M,,
Dez 26, 2016 11:15:06 PM gps.NMEA.utils.ChecksumUtilities getCRC
INFORMATION: Created CRC (6B)  for Sentence: $GPGGA,231506,5338.42,S,1006.92,E,8.0,09,3.3,15.4,M,0,M,,
Dez 26, 2016 11:15:06 PM gps.NMEA.utils.ChecksumUtilities getCRC
INFORMATION: Created CRC (6B)  for Sentence: $GPGGA,231506,5338.42,S,1006.92,E,8.0,09,3.3,15.4,M,0,M,,
Dez 26, 2016 11:15:07 PM gps.NMEA.utils.ChecksumUtilities getCRC
INFORMATION: Created CRC (65)  for Sentence: $GPRMC,231507,A,5338.42,S,1006.92,E,010.2,123.0,261216,,S
Dez 26, 2016 11:15:07 PM gps.NMEA.utils.ChecksumUtilities getCRC
INFORMATION: Created CRC (65)  for Sentence: $GPRMC,231507,A,5338.42,S,1006.92,E,010.2,123.0,261216,,S
Dez 26, 2016 11:15:07 PM gps.NMEA.utils.ChecksumUtilities getCRC
INFORMATION: Created CRC (4D)  for Sentence: $GPRMC,231507,A,5338.53,N,1006.94,E,010.1,88.0,261216,,S
Dez 26, 2016 11:15:07 PM gps.NMEA.utils.ChecksumUtilities getCRC
INFORMATION: Created CRC (61)  for Sentence: $GPGGA,231507,5338.57,S,1007.08,E,8.0,02,3.4,15.5,M,0,M,,
Dez 26, 2016 11:15:07 PM gps.NMEA.utils.ChecksumUtilities getCRC
INFORMATION: Created CRC (61)  for Sentence: $GPGGA,231507,5338.57,S,1007.08,E,8.0,02,3.4,15.5,M,0,M,,
Dez 26, 2016 11:15:07 PM gps.NMEA.utils.ChecksumUtilities getCRC
INFORMATION: Created CRC (61)  for Sentence: $GPGGA,231507,5338.57,S,1007.08,E,8.0,02,3.4,15.5,M,0,M,,
Dez 26, 2016 11:15:08 PM gps.NMEA.utils.ChecksumUtilities getCRC
INFORMATION: Created CRC (67)  for Sentence: $GPRMC,231508,A,5338.57,S,1007.08,E,010.2,139.0,261216,,S
Dez 26, 2016 11:15:08 PM gps.NMEA.utils.ChecksumUtilities getCRC
INFORMATION: Created CRC (67)  for Sentence: $GPRMC,231508,A,5338.57,S,1007.08,E,010.2,139.0,261216,,S
Dez 26, 2016 11:15:08 PM gps.NMEA.utils.ChecksumUtilities getCRC
INFORMATION: Created CRC (6C)  for Sentence: $GPRMC,231508,A,5338.57,S,1007.22,E,010.2,190.0,261216,,S
Dez 26, 2016 11:15:08 PM gps.NMEA.utils.ChecksumUtilities getCRC
INFORMATION: Created CRC (61)  for Sentence: $GPGGA,231508,5338.71,S,1007.33,E,8.0,01,3.3,15.2,M,0,M,,
Dez 26, 2016 11:15:08 PM gps.NMEA.utils.ChecksumUtilities getCRC
INFORMATION: Created CRC (61)  for Sentence: $GPGGA,231508,5338.71,S,1007.33,E,8.0,01,3.3,15.2,M,0,M,,
Dez 26, 2016 11:15:08 PM gps.NMEA.utils.ChecksumUtilities getCRC
INFORMATION: Created CRC (61)  for Sentence: $GPGGA,231508,5338.71,S,1007.33,E,8.0,01,3.3,15.2,M,0,M,,
Dez 26, 2016 11:15:09 PM gps.NMEA.utils.ChecksumUtilities getCRC
INFORMATION: Created CRC (67)  for Sentence: $GPRMC,231509,A,5338.71,S,1007.33,E,010.2,116.0,261216,,S
Dez 26, 2016 11:15:09 PM gps.NMEA.utils.ChecksumUtilities getCRC
INFORMATION: Created CRC (67)  for Sentence: $GPRMC,231509,A,5338.71,S,1007.33,E,010.2,116.0,261216,,S
Dez 26, 2016 11:15:09 PM gps.NMEA.utils.ChecksumUtilities getCRC
INFORMATION: Created CRC (6D)  for Sentence: $GPRMC,231509,A,5338.81,S,1007.45,E,010.1,177.0,261216,,S
Dez 26, 2016 11:15:09 PM gps.NMEA.utils.ChecksumUtilities getCRC
INFORMATION: Created CRC (6D)  for Sentence: $GPRMC,231509,A,5338.81,S,1007.45,E,010.1,177.0,261216,,S
Dez 26, 2016 11:15:09 PM gps.NMEA.utils.ChecksumUtilities getCRC
INFORMATION: Created CRC (60)  for Sentence: $GPGGA,231509,5338.89,S,1007.48,E,8.0,09,3.3,15.1,M,0,M,,
Dez 26, 2016 11:15:09 PM gps.NMEA.utils.ChecksumUtilities getCRC
INFORMATION: Created CRC (60)  for Sentence: $GPGGA,231509,5338.89,S,1007.48,E,8.0,09,3.3,15.1,M,0,M,,
Dez 26, 2016 11:15:09 PM gps.NMEA.utils.ChecksumUtilities getCRC
INFORMATION: Created CRC (60)  for Sentence: $GPGGA,231509,5338.89,S,1007.48,E,8.0,09,3.3,15.1,M,0,M,,
Dez 26, 2016 11:15:10 PM gps.NMEA.utils.ChecksumUtilities getCRC
INFORMATION: Created CRC (61)  for Sentence: $GPRMC,231510,A,5338.89,S,1007.48,E,010.1,198.0,261216,,S
Dez 26, 2016 11:15:10 PM gps.NMEA.utils.ChecksumUtilities getCRC
INFORMATION: Created CRC (61)  for Sentence: $GPRMC,231510,A,5338.93,S,1007.49,E,010.0,193.0,261216,,S
Dez 26, 2016 11:15:10 PM gps.NMEA.utils.ChecksumUtilities getCRC
INFORMATION: Created CRC (61)  for Sentence: $GPRMC,231510,A,5338.93,S,1007.49,E,010.0,193.0,261216,,S
Dez 26, 2016 11:15:10 PM gps.NMEA.utils.ChecksumUtilities getCRC
INFORMATION: Created CRC (78)  for Sentence: $GPGGA,231510,5338.98,N,1007.52,E,8.0,10,3.4,14.9,M,0,M,,
Dez 26, 2016 11:15:10 PM gps.NMEA.utils.ChecksumUtilities getCRC
INFORMATION: Created CRC (78)  for Sentence: $GPGGA,231510,5338.98,N,1007.52,E,8.0,10,3.4,14.9,M,0,M,,
Dez 26, 2016 11:15:10 PM gps.NMEA.utils.ChecksumUtilities getCRC
INFORMATION: Created CRC (78)  for Sentence: $GPGGA,231510,5338.98,N,1007.52,E,8.0,10,3.4,14.9,M,0,M,,
Dez 26, 2016 11:15:11 PM gps.NMEA.utils.ChecksumUtilities getCRC
INFORMATION: Created CRC (4F)  for Sentence: $GPRMC,231511,A,5338.98,N,1007.52,E,010.0,91.0,261216,,S
Dez 26, 2016 11:15:11 PM gps.NMEA.utils.ChecksumUtilities getCRC
INFORMATION: Created CRC (66)  for Sentence: $GPRMC,231511,A,5339.05,N,1007.63,W,010.1,324.0,261216,,S
Dez 26, 2016 11:15:11 PM gps.NMEA.utils.ChecksumUtilities getCRC
INFORMATION: Created CRC (66)  for Sentence: $GPRMC,231511,A,5339.05,N,1007.63,W,010.1,324.0,261216,,S
Dez 26, 2016 11:15:11 PM gps.NMEA.utils.ChecksumUtilities getCRC
INFORMATION: Created CRC (78)  for Sentence: $GPGGA,231511,5339.16,S,1007.63,W,8.0,07,3.3,15.2,M,0,M,,
Dez 26, 2016 11:15:11 PM gps.NMEA.utils.ChecksumUtilities getCRC
INFORMATION: Created CRC (78)  for Sentence: $GPGGA,231511,5339.16,S,1007.63,W,8.0,07,3.3,15.2,M,0,M,,
Dez 26, 2016 11:15:11 PM gps.NMEA.utils.ChecksumUtilities getCRC
INFORMATION: Created CRC (78)  for Sentence: $GPGGA,231511,5339.16,S,1007.63,W,8.0,07,3.3,15.2,M,0,M,,
Dez 26, 2016 11:15:12 PM gps.NMEA.utils.ChecksumUtilities getCRC
INFORMATION: Created CRC (7E)  for Sentence: $GPRMC,231512,A,5339.16,S,1007.63,W,010.1,221.0,261216,,S
Dez 26, 2016 11:15:12 PM gps.NMEA.utils.ChecksumUtilities getCRC
INFORMATION: Created CRC (6F)  for Sentence: $GPRMC,231512,A,5339.19,S,1007.77,E,010.1,181.0,261216,,S
Dez 26, 2016 11:15:12 PM gps.NMEA.utils.ChecksumUtilities getCRC
INFORMATION: Created CRC (6F)  for Sentence: $GPRMC,231512,A,5339.19,S,1007.77,E,010.1,181.0,261216,,S
Dez 26, 2016 11:15:12 PM gps.NMEA.utils.ChecksumUtilities getCRC
INFORMATION: Created CRC (40)  for Sentence: $GPGGA,231512,5339.3,S,1007.78,W,8.0,00,3.2,15.1,M,0,M,,
Dez 26, 2016 11:15:12 PM gps.NMEA.utils.ChecksumUtilities getCRC
INFORMATION: Created CRC (40)  for Sentence: $GPGGA,231512,5339.3,S,1007.78,W,8.0,00,3.2,15.1,M,0,M,,
Dez 26, 2016 11:15:12 PM gps.NMEA.utils.ChecksumUtilities getCRC
INFORMATION: Created CRC (40)  for Sentence: $GPGGA,231512,5339.3,S,1007.78,W,8.0,00,3.2,15.1,M,0,M,,
Dez 26, 2016 11:15:13 PM gps.NMEA.utils.ChecksumUtilities getCRC
INFORMATION: Created CRC (49)  for Sentence: $GPRMC,231513,A,5339.3,S,1007.78,W,010.1,229.0,261216,,S
Dez 26, 2016 11:15:13 PM gps.NMEA.utils.ChecksumUtilities getCRC
INFORMATION: Created CRC (49)  for Sentence: $GPRMC,231513,A,5339.3,S,1007.78,W,010.1,229.0,261216,,S
Dez 26, 2016 11:15:13 PM gps.NMEA.utils.ChecksumUtilities getCRC
INFORMATION: Created CRC (72)  for Sentence: $GPRMC,231513,A,5339.41,S,1007.83,W,010.1,257.0,261216,,S
Dez 26, 2016 11:15:13 PM gps.NMEA.utils.ChecksumUtilities getCRC
INFORMATION: Created CRC (65)  for Sentence: $GPGGA,231513,5339.54,S,1007.97,E,8.0,10,3.4,15.3,M,0,M,,
Dez 26, 2016 11:15:13 PM gps.NMEA.utils.ChecksumUtilities getCRC
INFORMATION: Created CRC (65)  for Sentence: $GPGGA,231513,5339.54,S,1007.97,E,8.0,10,3.4,15.3,M,0,M,,
Dez 26, 2016 11:15:13 PM gps.NMEA.utils.ChecksumUtilities getCRC
INFORMATION: Created CRC (65)  for Sentence: $GPGGA,231513,5339.54,S,1007.97,E,8.0,10,3.4,15.3,M,0,M,,
Dez 26, 2016 11:15:14 PM gps.NMEA.utils.ChecksumUtilities getCRC
INFORMATION: Created CRC (63)  for Sentence: $GPRMC,231514,A,5339.54,S,1007.97,E,010.2,134.0,261216,,S
Dez 26, 2016 11:15:14 PM gps.NMEA.utils.ChecksumUtilities getCRC
INFORMATION: Created CRC (59)  for Sentence: $GPRMC,231514,A,5339.58,S,1008.0,E,010.1,165.0,261216,,S
Dez 26, 2016 11:15:14 PM gps.NMEA.utils.ChecksumUtilities getCRC
INFORMATION: Created CRC (59)  for Sentence: $GPRMC,231514,A,5339.58,S,1008.0,E,010.1,165.0,261216,,S
Dez 26, 2016 11:15:14 PM gps.NMEA.utils.ChecksumUtilities getCRC
INFORMATION: Created CRC (59)  for Sentence: $GPRMC,231514,A,5339.58,S,1008.0,E,010.1,165.0,261216,,S
Dez 26, 2016 11:15:14 PM gps.NMEA.utils.ChecksumUtilities getCRC
INFORMATION: Created CRC (64)  for Sentence: $GPGGA,231514,5339.71,S,1008.03,E,8.0,05,3.4,15.4,M,0,M,,
Dez 26, 2016 11:15:14 PM gps.NMEA.utils.ChecksumUtilities getCRC
INFORMATION: Created CRC (64)  for Sentence: $GPGGA,231514,5339.71,S,1008.03,E,8.0,05,3.4,15.4,M,0,M,,
Dez 26, 2016 11:15:14 PM gps.NMEA.utils.ChecksumUtilities getCRC
INFORMATION: Created CRC (64)  for Sentence: $GPGGA,231514,5339.71,S,1008.03,E,8.0,05,3.4,15.4,M,0,M,,
Dez 26, 2016 11:15:15 PM gps.NMEA.utils.ChecksumUtilities getCRC
INFORMATION: Created CRC (6B)  for Sentence: $GPRMC,231515,A,5339.71,S,1008.09,E,010.1,157.0,261216,,S
Dez 26, 2016 11:15:15 PM gps.NMEA.utils.ChecksumUtilities getCRC
INFORMATION: Created CRC (6B)  for Sentence: $GPRMC,231515,A,5339.71,S,1008.09,E,010.1,157.0,261216,,S
Dez 26, 2016 11:15:15 PM gps.NMEA.utils.ChecksumUtilities getCRC
INFORMATION: Created CRC (74)  for Sentence: $GPGGA,231515,5339.77,N,1008.21,E,8.0,09,3.2,15.4,M,0,M,,
Dez 26, 2016 11:15:15 PM gps.NMEA.utils.ChecksumUtilities getCRC
INFORMATION: Created CRC (74)  for Sentence: $GPGGA,231515,5339.77,N,1008.21,E,8.0,09,3.2,15.4,M,0,M,,
Dez 26, 2016 11:15:15 PM gps.NMEA.utils.ChecksumUtilities getCRC
INFORMATION: Created CRC (74)  for Sentence: $GPGGA,231515,5339.77,N,1008.21,E,8.0,09,3.2,15.4,M,0,M,,
Dez 26, 2016 11:15:16 PM gps.NMEA.utils.ChecksumUtilities getCRC
INFORMATION: Created CRC (4B)  for Sentence: $GPRMC,231516,A,5339.77,N,1008.21,E,010.2,64.0,261216,,S
Dez 26, 2016 11:15:16 PM gps.NMEA.utils.ChecksumUtilities getCRC
INFORMATION: Created CRC (69)  for Sentence: $GPRMC,231516,A,5339.78,S,1008.35,E,010.1,163.0,261216,,S
Dez 26, 2016 11:15:16 PM gps.NMEA.utils.ChecksumUtilities getCRC
INFORMATION: Created CRC (69)  for Sentence: $GPRMC,231516,A,5339.78,S,1008.35,E,010.1,163.0,261216,,S
Dez 26, 2016 11:15:16 PM gps.NMEA.utils.ChecksumUtilities getCRC
INFORMATION: Created CRC (7F)  for Sentence: $GPGGA,231516,5339.81,N,1008.49,E,8.0,11,3.2,15.2,M,0,M,,
Dez 26, 2016 11:15:16 PM gps.NMEA.utils.ChecksumUtilities getCRC
INFORMATION: Created CRC (7F)  for Sentence: $GPGGA,231516,5339.81,N,1008.49,E,8.0,11,3.2,15.2,M,0,M,,
Dez 26, 2016 11:15:16 PM gps.NMEA.utils.ChecksumUtilities getCRC
INFORMATION: Created CRC (7F)  for Sentence: $GPGGA,231516,5339.81,N,1008.49,E,8.0,11,3.2,15.2,M,0,M,,
Dez 26, 2016 11:15:17 PM gps.NMEA.utils.ChecksumUtilities getCRC
INFORMATION: Created CRC (4C)  for Sentence: $GPRMC,231517,A,5339.81,N,1008.49,E,010.1,88.0,261216,,S
Dez 26, 2016 11:15:17 PM gps.NMEA.utils.ChecksumUtilities getCRC
INFORMATION: Created CRC (4F)  for Sentence: $GPRMC,231517,A,5339.88,N,1008.51,E,010.2,99.0,261216,,S
Dez 26, 2016 11:15:17 PM gps.NMEA.utils.ChecksumUtilities getCRC
INFORMATION: Created CRC (4F)  for Sentence: $GPRMC,231517,A,5339.88,N,1008.51,E,010.2,99.0,261216,,S
Dez 26, 2016 11:15:17 PM gps.NMEA.utils.ChecksumUtilities getCRC
INFORMATION: Created CRC (62)  for Sentence: $GPGGA,231517,5340.01,S,1008.56,E,8.0,09,3.2,15.2,M,0,M,,
Dez 26, 2016 11:15:17 PM gps.NMEA.utils.ChecksumUtilities getCRC
INFORMATION: Created CRC (62)  for Sentence: $GPGGA,231517,5340.01,S,1008.56,E,8.0,09,3.2,15.2,M,0,M,,
Dez 26, 2016 11:15:17 PM gps.NMEA.utils.ChecksumUtilities getCRC
INFORMATION: Created CRC (62)  for Sentence: $GPGGA,231517,5340.01,S,1008.56,E,8.0,09,3.2,15.2,M,0,M,,
Dez 26, 2016 11:15:18 PM gps.NMEA.utils.ChecksumUtilities getCRC
INFORMATION: Created CRC (6B)  for Sentence: $GPRMC,231518,A,5340.01,S,1008.56,E,010.2,178.0,261216,,S
Dez 26, 2016 11:15:18 PM gps.NMEA.utils.ChecksumUtilities getCRC
INFORMATION: Created CRC (71)  for Sentence: $GPRMC,231518,A,5340.1,N,1008.59,E,010.1,36.0,261216,,S
Dez 26, 2016 11:15:18 PM gps.NMEA.utils.ChecksumUtilities getCRC
INFORMATION: Created CRC (71)  for Sentence: $GPRMC,231518,A,5340.1,N,1008.59,E,010.1,36.0,261216,,S
Dez 26, 2016 11:15:18 PM gps.NMEA.utils.ChecksumUtilities getCRC
INFORMATION: Created CRC (70)  for Sentence: $GPGGA,231518,5340.16,N,1008.71,E,8.0,08,3.3,15.1,M,0,M,,
Dez 26, 2016 11:15:18 PM gps.NMEA.utils.ChecksumUtilities getCRC
INFORMATION: Created CRC (70)  for Sentence: $GPGGA,231518,5340.16,N,1008.71,E,8.0,08,3.3,15.1,M,0,M,,
Dez 26, 2016 11:15:18 PM gps.NMEA.utils.ChecksumUtilities getCRC
INFORMATION: Created CRC (70)  for Sentence: $GPGGA,231518,5340.16,N,1008.71,E,8.0,08,3.3,15.1,M,0,M,,
Dez 26, 2016 11:15:19 PM gps.NMEA.utils.ChecksumUtilities getCRC
INFORMATION: Created CRC (7C)  for Sentence: $GPRMC,231519,A,5340.16,N,1008.71,E,010.1,5.0,261216,,S
Dez 26, 2016 11:15:19 PM gps.NMEA.utils.ChecksumUtilities getCRC
INFORMATION: Created CRC (7C)  for Sentence: $GPRMC,231519,A,5340.16,N,1008.71,E,010.1,5.0,261216,,S
Dez 26, 2016 11:15:19 PM gps.NMEA.utils.ChecksumUtilities getCRC
INFORMATION: Created CRC (7E)  for Sentence: $GPRMC,231519,A,5340.3,N,1008.73,E,010.1,45.0,261216,,S
Dez 26, 2016 11:15:19 PM gps.NMEA.utils.ChecksumUtilities getCRC
INFORMATION: Created CRC (63)  for Sentence: $GPGGA,231519,5340.43,N,1008.74,W,8.0,05,3.2,14.9,M,0,M,,
Dez 26, 2016 11:15:19 PM gps.NMEA.utils.ChecksumUtilities getCRC
INFORMATION: Created CRC (63)  for Sentence: $GPGGA,231519,5340.43,N,1008.74,W,8.0,05,3.2,14.9,M,0,M,,
Dez 26, 2016 11:15:19 PM gps.NMEA.utils.ChecksumUtilities getCRC
INFORMATION: Created CRC (63)  for Sentence: $GPGGA,231519,5340.43,N,1008.74,W,8.0,05,3.2,14.9,M,0,M,,
Dez 26, 2016 11:15:20 PM gps.NMEA.utils.ChecksumUtilities getCRC
INFORMATION: Created CRC (67)  for Sentence: $GPRMC,231520,A,5340.43,N,1008.74,W,010.2,347.0,261216,,S
Dez 26, 2016 11:15:20 PM gps.NMEA.utils.ChecksumUtilities getCRC
INFORMATION: Created CRC (67)  for Sentence: $GPRMC,231520,A,5340.43,N,1008.74,W,010.2,347.0,261216,,S
Dez 26, 2016 11:15:20 PM gps.NMEA.utils.ChecksumUtilities getCRC
INFORMATION: Created CRC (7F)  for Sentence: $GPRMC,231520,A,5340.46,S,1008.78,W,010.2,297.0,261216,,S
Dez 26, 2016 11:15:20 PM gps.NMEA.utils.ChecksumUtilities getCRC
INFORMATION: Created CRC (70)  for Sentence: $GPGGA,231520,5340.52,S,1008.78,W,8.0,02,3.2,14.6,M,0,M,,
Dez 26, 2016 11:15:20 PM gps.NMEA.utils.ChecksumUtilities getCRC
INFORMATION: Created CRC (70)  for Sentence: $GPGGA,231520,5340.52,S,1008.78,W,8.0,02,3.2,14.6,M,0,M,,
Dez 26, 2016 11:15:20 PM gps.NMEA.utils.ChecksumUtilities getCRC
INFORMATION: Created CRC (70)  for Sentence: $GPGGA,231520,5340.52,S,1008.78,W,8.0,02,3.2,14.6,M,0,M,,
Dez 26, 2016 11:15:21 PM gps.NMEA.utils.ChecksumUtilities getCRC
INFORMATION: Created CRC (7C)  for Sentence: $GPRMC,231521,A,5340.52,S,1008.78,W,010.1,293.0,261216,,S
Dez 26, 2016 11:15:21 PM gps.NMEA.utils.ChecksumUtilities getCRC
INFORMATION: Created CRC (7C)  for Sentence: $GPRMC,231521,A,5340.52,S,1008.78,W,010.1,293.0,261216,,S
Dez 26, 2016 11:15:21 PM gps.NMEA.utils.ChecksumUtilities getCRC
INFORMATION: Created CRC (63)  for Sentence: $GPRMC,231521,A,5340.66,S,1008.84,E,010.1,188.0,261216,,S
Dez 26, 2016 11:15:21 PM gps.NMEA.utils.ChecksumUtilities getCRC
INFORMATION: Created CRC (6D)  for Sentence: $GPGGA,231521,5340.78,S,1008.92,E,8.0,03,3.1,14.6,M,0,M,,
Dez 26, 2016 11:15:21 PM gps.NMEA.utils.ChecksumUtilities getCRC
INFORMATION: Created CRC (6D)  for Sentence: $GPGGA,231521,5340.78,S,1008.92,E,8.0,03,3.1,14.6,M,0,M,,
Dez 26, 2016 11:15:21 PM gps.NMEA.utils.ChecksumUtilities getCRC
INFORMATION: Created CRC (6D)  for Sentence: $GPGGA,231521,5340.78,S,1008.92,E,8.0,03,3.1,14.6,M,0,M,,
Dez 26, 2016 11:15:22 PM gps.NMEA.utils.ChecksumUtilities getCRC
INFORMATION: Created CRC (67)  for Sentence: $GPRMC,231522,A,5340.78,S,1008.92,E,010.1,196.0,261216,,S
Dez 26, 2016 11:15:22 PM gps.NMEA.utils.ChecksumUtilities getCRC
INFORMATION: Created CRC (67)  for Sentence: $GPRMC,231522,A,5340.78,S,1008.92,E,010.1,196.0,261216,,S
Dez 26, 2016 11:15:22 PM gps.NMEA.utils.ChecksumUtilities getCRC
INFORMATION: Created CRC (66)  for Sentence: $GPRMC,231522,A,5340.82,S,1009.01,E,010.1,111.0,261216,,S
Dez 26, 2016 11:15:22 PM gps.NMEA.utils.ChecksumUtilities getCRC
INFORMATION: Created CRC (73)  for Sentence: $GPGGA,231522,5340.96,N,1009.06,E,8.0,01,3.0,14.9,M,0,M,,
Dez 26, 2016 11:15:22 PM gps.NMEA.utils.ChecksumUtilities getCRC
INFORMATION: Created CRC (73)  for Sentence: $GPGGA,231522,5340.96,N,1009.06,E,8.0,01,3.0,14.9,M,0,M,,
Dez 26, 2016 11:15:22 PM gps.NMEA.utils.ChecksumUtilities getCRC
INFORMATION: Created CRC (73)  for Sentence: $GPGGA,231522,5340.96,N,1009.06,E,8.0,01,3.0,14.9,M,0,M,,
Dez 26, 2016 11:15:22 PM gps.NMEA.utils.ChecksumUtilities getCRC
INFORMATION: Created CRC (4A)  for Sentence: $GPRMC,231522,A,5340.96,N,1009.06,E,010.2,98.0,261216,,S
Dez 26, 2016 11:15:23 PM gps.NMEA.utils.ChecksumUtilities getCRC
INFORMATION: Created CRC (4B)  for Sentence: $GPRMC,231523,A,5340.96,N,1009.06,E,010.2,98.0,261216,,S
Dez 26, 2016 11:15:23 PM gps.NMEA.utils.ChecksumUtilities getCRC
INFORMATION: Created CRC (6C)  for Sentence: $GPRMC,231523,A,5341.06,S,1009.16,E,010.2,121.0,261216,,S
Dez 26, 2016 11:15:23 PM gps.NMEA.utils.ChecksumUtilities getCRC
INFORMATION: Created CRC (7F)  for Sentence: $GPGGA,231523,5341.12,S,1009.26,W,8.0,10,3.1,14.5,M,0,M,,
Dez 26, 2016 11:15:23 PM gps.NMEA.utils.ChecksumUtilities getCRC
INFORMATION: Created CRC (7F)  for Sentence: $GPGGA,231523,5341.12,S,1009.26,W,8.0,10,3.1,14.5,M,0,M,,
Dez 26, 2016 11:15:23 PM gps.NMEA.utils.ChecksumUtilities getCRC
INFORMATION: Created CRC (7F)  for Sentence: $GPGGA,231523,5341.12,S,1009.26,W,8.0,10,3.1,14.5,M,0,M,,
Dez 26, 2016 11:15:24 PM gps.NMEA.utils.ChecksumUtilities getCRC
INFORMATION: Created CRC (7D)  for Sentence: $GPRMC,231524,A,5341.12,S,1009.26,W,010.1,254.0,261216,,S
Dez 26, 2016 11:15:24 PM gps.NMEA.utils.ChecksumUtilities getCRC
INFORMATION: Created CRC (7D)  for Sentence: $GPRMC,231524,A,5341.12,S,1009.26,W,010.1,254.0,261216,,S
Dez 26, 2016 11:15:24 PM gps.NMEA.utils.ChecksumUtilities getCRC
INFORMATION: Created CRC (7D)  for Sentence: $GPRMC,231524,A,5341.12,S,1009.26,W,010.1,254.0,261216,,S
Dez 26, 2016 11:15:24 PM gps.NMEA.utils.ChecksumUtilities getCRC
INFORMATION: Created CRC (44)  for Sentence: $GPGGA,231524,5341.2,S,1009.39,W,8.0,10,3.1,14.6,M,0,M,,
Dez 26, 2016 11:15:24 PM gps.NMEA.utils.ChecksumUtilities getCRC
INFORMATION: Created CRC (44)  for Sentence: $GPGGA,231524,5341.2,S,1009.39,W,8.0,10,3.1,14.6,M,0,M,,
Dez 26, 2016 11:15:24 PM gps.NMEA.utils.ChecksumUtilities getCRC
INFORMATION: Created CRC (44)  for Sentence: $GPGGA,231524,5341.2,S,1009.39,W,8.0,10,3.1,14.6,M,0,M,,
Dez 26, 2016 11:15:25 PM gps.NMEA.utils.ChecksumUtilities getCRC
INFORMATION: Created CRC (47)  for Sentence: $GPRMC,231525,A,5341.2,S,1009.39,W,010.1,272.0,261216,,S
Dez 26, 2016 11:15:25 PM gps.NMEA.utils.ChecksumUtilities getCRC
INFORMATION: Created CRC (47)  for Sentence: $GPRMC,231525,A,5341.2,S,1009.39,W,010.1,272.0,261216,,S
Dez 26, 2016 11:15:25 PM gps.NMEA.utils.ChecksumUtilities getCRC
INFORMATION: Created CRC (73)  for Sentence: $GPRMC,231525,A,5341.28,S,1009.43,W,010.2,252.0,261216,,S
Dez 26, 2016 11:15:25 PM gps.NMEA.utils.ChecksumUtilities getCRC
INFORMATION: Created CRC (73)  for Sentence: $GPRMC,231525,A,5341.28,S,1009.43,W,010.2,252.0,261216,,S
Dez 26, 2016 11:15:25 PM gps.NMEA.utils.ChecksumUtilities getCRC
INFORMATION: Created CRC (65)  for Sentence: $GPGGA,231525,5341.42,S,1009.45,E,8.0,01,3.2,14.8,M,0,M,,
Dez 26, 2016 11:15:25 PM gps.NMEA.utils.ChecksumUtilities getCRC
INFORMATION: Created CRC (65)  for Sentence: $GPGGA,231525,5341.42,S,1009.45,E,8.0,01,3.2,14.8,M,0,M,,
Dez 26, 2016 11:15:25 PM gps.NMEA.utils.ChecksumUtilities getCRC
INFORMATION: Created CRC (65)  for Sentence: $GPGGA,231525,5341.42,S,1009.45,E,8.0,01,3.2,14.8,M,0,M,,
Dez 26, 2016 11:15:26 PM gps.NMEA.utils.ChecksumUtilities getCRC
INFORMATION: Created CRC (6B)  for Sentence: $GPRMC,231526,A,5341.42,S,1009.45,E,010.1,151.0,261216,,S
Dez 26, 2016 11:15:26 PM gps.NMEA.utils.ChecksumUtilities getCRC
INFORMATION: Created CRC (68)  for Sentence: $GPRMC,231526,A,5341.53,S,1009.56,E,010.1,172.0,261216,,S
Dez 26, 2016 11:15:26 PM gps.NMEA.utils.ChecksumUtilities getCRC
INFORMATION: Created CRC (73)  for Sentence: $GPGGA,231526,5341.54,N,1009.67,E,8.0,01,3.3,14.6,M,0,M,,
Dez 26, 2016 11:15:26 PM gps.NMEA.utils.ChecksumUtilities getCRC
INFORMATION: Created CRC (73)  for Sentence: $GPGGA,231526,5341.54,N,1009.67,E,8.0,01,3.3,14.6,M,0,M,,
Dez 26, 2016 11:15:26 PM gps.NMEA.utils.ChecksumUtilities getCRC
INFORMATION: Created CRC (73)  for Sentence: $GPGGA,231526,5341.54,N,1009.67,E,8.0,01,3.3,14.6,M,0,M,,
Dez 26, 2016 11:15:27 PM gps.NMEA.utils.ChecksumUtilities getCRC
INFORMATION: Created CRC (4A)  for Sentence: $GPRMC,231527,A,5341.54,N,1009.67,E,010.2,48.0,261216,,S
Dez 26, 2016 11:15:27 PM gps.NMEA.utils.ChecksumUtilities getCRC
INFORMATION: Created CRC (4A)  for Sentence: $GPRMC,231527,A,5341.54,N,1009.67,E,010.2,48.0,261216,,S
Dez 26, 2016 11:15:27 PM gps.NMEA.utils.ChecksumUtilities getCRC
INFORMATION: Created CRC (6F)  for Sentence: $GPRMC,231527,A,5341.59,S,1009.79,E,010.2,143.0,261216,,S
Dez 26, 2016 11:15:27 PM gps.NMEA.utils.ChecksumUtilities getCRC
INFORMATION: Created CRC (75)  for Sentence: $GPGGA,231527,5341.62,N,1009.92,E,8.0,09,3.2,14.7,M,0,M,,
Dez 26, 2016 11:15:27 PM gps.NMEA.utils.ChecksumUtilities getCRC
INFORMATION: Created CRC (75)  for Sentence: $GPGGA,231527,5341.62,N,1009.92,E,8.0,09,3.2,14.7,M,0,M,,
Dez 26, 2016 11:15:27 PM gps.NMEA.utils.ChecksumUtilities getCRC
INFORMATION: Created CRC (75)  for Sentence: $GPGGA,231527,5341.62,N,1009.92,E,8.0,09,3.2,14.7,M,0,M,,
Dez 26, 2016 11:15:28 PM gps.NMEA.utils.ChecksumUtilities getCRC
INFORMATION: Created CRC (48)  for Sentence: $GPRMC,231528,A,5341.62,N,1009.92,E,010.2,68.0,261216,,S
Dez 26, 2016 11:15:28 PM gps.NMEA.utils.ChecksumUtilities getCRC
