Dez 31, 2016 2:51:13 AM gps.NMEA.utils.ChecksumUtilities getCRC
INFORMATION: Created CRC (46)  for Sentence: $GPGGA,025113,5333.44,S,1001.41,W,8.0,03,2.0,149.8,M,0,M,,
Dez 31, 2016 2:51:13 AM gps.NMEA.utils.ChecksumUtilities getCRC
INFORMATION: Created CRC (46)  for Sentence: $GPGGA,025113,5333.44,S,1001.41,W,8.0,03,2.0,149.8,M,0,M,,
Dez 31, 2016 2:51:13 AM gps.NMEA.utils.ChecksumUtilities isChecksumValid
INFORMATION: Sentence: $GPGGA,025113,5333.44,S,1001.41,W,8.0,03,2.0,149.8,M,0,M,,*46 is valid
Dez 31, 2016 2:51:14 AM gps.NMEA.utils.ChecksumUtilities getCRC
INFORMATION: Created CRC (6C)  for Sentence: $GPRMC,025114,A,5333.68,N,1001.58,W,010.1,374.0,311216,,S
Dez 31, 2016 2:51:14 AM gps.NMEA.utils.ChecksumUtilities getCRC
INFORMATION: Created CRC (6C)  for Sentence: $GPRMC,025114,A,5333.68,N,1001.58,W,010.1,374.0,311216,,S
Dez 31, 2016 2:51:14 AM gps.NMEA.utils.ChecksumUtilities isChecksumValid
INFORMATION: Sentence: $GPRMC,025114,A,5333.68,N,1001.58,W,010.1,374.0,311216,,S*6C is valid
Dez 31, 2016 2:51:14 AM gps.NMEA.utils.ChecksumUtilities getCRC
INFORMATION: Created CRC (56)  for Sentence: $GPGGA,025114,5333.68,N,1001.58,W,8.0,05,1.9,150.0,M,0,M,,
Dez 31, 2016 2:51:14 AM gps.NMEA.utils.ChecksumUtilities getCRC
INFORMATION: Created CRC (56)  for Sentence: $GPGGA,025114,5333.68,N,1001.58,W,8.0,05,1.9,150.0,M,0,M,,
Dez 31, 2016 2:51:14 AM gps.NMEA.utils.ChecksumUtilities isChecksumValid
INFORMATION: Sentence: $GPGGA,025114,5333.68,N,1001.58,W,8.0,05,1.9,150.0,M,0,M,,*56 is valid
Dez 31, 2016 2:51:15 AM gps.NMEA.utils.ChecksumUtilities getCRC
INFORMATION: Created CRC (46)  for Sentence: $GPRMC,025115,A,5333.78,N,1001.61,E,010.0,21.0,311216,,S
Dez 31, 2016 2:51:15 AM gps.NMEA.utils.ChecksumUtilities getCRC
INFORMATION: Created CRC (46)  for Sentence: $GPRMC,025115,A,5333.78,N,1001.61,E,010.0,21.0,311216,,S
Dez 31, 2016 2:51:15 AM gps.NMEA.utils.ChecksumUtilities isChecksumValid
INFORMATION: Sentence: $GPRMC,025115,A,5333.78,N,1001.61,E,010.0,21.0,311216,,S*46 is valid
Dez 31, 2016 2:51:15 AM gps.NMEA.utils.ChecksumUtilities getCRC
INFORMATION: Created CRC (58)  for Sentence: $GPGGA,025115,5333.92,N,1001.75,W,8.0,10,1.9,150.1,M,0,M,,
Dez 31, 2016 2:51:15 AM gps.NMEA.utils.ChecksumUtilities getCRC
INFORMATION: Created CRC (58)  for Sentence: $GPGGA,025115,5333.92,N,1001.75,W,8.0,10,1.9,150.1,M,0,M,,
Dez 31, 2016 2:51:15 AM gps.NMEA.utils.ChecksumUtilities isChecksumValid
INFORMATION: Sentence: $GPGGA,025115,5333.92,N,1001.75,W,8.0,10,1.9,150.1,M,0,M,,*58 is valid
Dez 31, 2016 2:51:16 AM gps.NMEA.utils.ChecksumUtilities getCRC
INFORMATION: Created CRC (63)  for Sentence: $GPRMC,025116,A,5334.04,N,1001.76,W,010.1,387.0,311216,,S
Dez 31, 2016 2:51:16 AM gps.NMEA.utils.ChecksumUtilities getCRC
INFORMATION: Created CRC (63)  for Sentence: $GPRMC,025116,A,5334.04,N,1001.76,W,010.1,387.0,311216,,S
Dez 31, 2016 2:51:16 AM gps.NMEA.utils.ChecksumUtilities isChecksumValid
INFORMATION: Sentence: $GPRMC,025116,A,5334.04,N,1001.76,W,010.1,387.0,311216,,S*63 is valid
Dez 31, 2016 2:51:16 AM gps.NMEA.utils.ChecksumUtilities getCRC
INFORMATION: Created CRC (4B)  for Sentence: $GPGGA,025116,5334.18,N,1001.89,E,8.0,04,1.9,150.0,M,0,M,,
Dez 31, 2016 2:51:16 AM gps.NMEA.utils.ChecksumUtilities getCRC
INFORMATION: Created CRC (4B)  for Sentence: $GPGGA,025116,5334.18,N,1001.89,E,8.0,04,1.9,150.0,M,0,M,,
Dez 31, 2016 2:51:16 AM gps.NMEA.utils.ChecksumUtilities isChecksumValid
INFORMATION: Sentence: $GPGGA,025116,5334.18,N,1001.89,E,8.0,04,1.9,150.0,M,0,M,,*4B is valid
Dez 31, 2016 2:51:16 AM gps.NMEA.utils.ChecksumUtilities getCRC
INFORMATION: Created CRC (66)  for Sentence: $GPRMC,025116,A,5334.21,S,1001.98,E,010.0,101.0,311216,,S
Dez 31, 2016 2:51:16 AM gps.NMEA.utils.ChecksumUtilities getCRC
INFORMATION: Created CRC (66)  for Sentence: $GPRMC,025116,A,5334.21,S,1001.98,E,010.0,101.0,311216,,S
Dez 31, 2016 2:51:16 AM gps.NMEA.utils.ChecksumUtilities isChecksumValid
INFORMATION: Sentence: $GPRMC,025116,A,5334.21,S,1001.98,E,010.0,101.0,311216,,S*66 is valid
Dez 31, 2016 2:51:17 AM gps.NMEA.utils.ChecksumUtilities getCRC
INFORMATION: Created CRC (5F)  for Sentence: $GPGGA,025117,5334.22,S,1002.08,E,8.0,07,2.0,150.2,M,0,M,,
Dez 31, 2016 2:51:17 AM gps.NMEA.utils.ChecksumUtilities getCRC
INFORMATION: Created CRC (5F)  for Sentence: $GPGGA,025117,5334.22,S,1002.08,E,8.0,07,2.0,150.2,M,0,M,,
Dez 31, 2016 2:51:17 AM gps.NMEA.utils.ChecksumUtilities isChecksumValid
INFORMATION: Sentence: $GPGGA,025117,5334.22,S,1002.08,E,8.0,07,2.0,150.2,M,0,M,,*5F is valid
Dez 31, 2016 2:51:17 AM gps.NMEA.utils.ChecksumUtilities getCRC
INFORMATION: Created CRC (67)  for Sentence: $GPRMC,025117,A,5334.33,S,1002.14,E,010.1,162.0,311216,,S
Dez 31, 2016 2:51:17 AM gps.NMEA.utils.ChecksumUtilities getCRC
INFORMATION: Created CRC (67)  for Sentence: $GPRMC,025117,A,5334.33,S,1002.14,E,010.1,162.0,311216,,S
Dez 31, 2016 2:51:17 AM gps.NMEA.utils.ChecksumUtilities isChecksumValid
INFORMATION: Sentence: $GPRMC,025117,A,5334.33,S,1002.14,E,010.1,162.0,311216,,S*67 is valid
Dez 31, 2016 2:51:18 AM gps.NMEA.utils.ChecksumUtilities getCRC
INFORMATION: Created CRC (5A)  for Sentence: $GPGGA,025118,5334.39,S,1002.14,E,8.0,00,1.9,150.2,M,0,M,,
Dez 31, 2016 2:51:18 AM gps.NMEA.utils.ChecksumUtilities getCRC
INFORMATION: Created CRC (5A)  for Sentence: $GPGGA,025118,5334.39,S,1002.14,E,8.0,00,1.9,150.2,M,0,M,,
Dez 31, 2016 2:51:18 AM gps.NMEA.utils.ChecksumUtilities isChecksumValid
INFORMATION: Sentence: $GPGGA,025118,5334.39,S,1002.14,E,8.0,00,1.9,150.2,M,0,M,,*5A is valid
Dez 31, 2016 2:51:18 AM gps.NMEA.utils.ChecksumUtilities getCRC
INFORMATION: Created CRC (44)  for Sentence: $GPRMC,025118,A,5334.42,N,1002.19,E,010.0,97.0,311216,,S
Dez 31, 2016 2:51:18 AM gps.NMEA.utils.ChecksumUtilities getCRC
INFORMATION: Created CRC (44)  for Sentence: $GPRMC,025118,A,5334.42,N,1002.19,E,010.0,97.0,311216,,S
Dez 31, 2016 2:51:18 AM gps.NMEA.utils.ChecksumUtilities isChecksumValid
INFORMATION: Sentence: $GPRMC,025118,A,5334.42,N,1002.19,E,010.0,97.0,311216,,S*44 is valid
Dez 31, 2016 2:51:19 AM gps.NMEA.utils.ChecksumUtilities getCRC
INFORMATION: Created CRC (51)  for Sentence: $GPGGA,025119,5334.52,S,1002.27,E,8.0,04,1.9,149.9,M,0,M,,
Dez 31, 2016 2:51:19 AM gps.NMEA.utils.ChecksumUtilities getCRC
INFORMATION: Created CRC (51)  for Sentence: $GPGGA,025119,5334.52,S,1002.27,E,8.0,04,1.9,149.9,M,0,M,,
Dez 31, 2016 2:51:19 AM gps.NMEA.utils.ChecksumUtilities isChecksumValid
INFORMATION: Sentence: $GPGGA,025119,5334.52,S,1002.27,E,8.0,04,1.9,149.9,M,0,M,,*51 is valid
Dez 31, 2016 2:51:19 AM gps.NMEA.utils.ChecksumUtilities getCRC
INFORMATION: Created CRC (40)  for Sentence: $GPRMC,025119,A,5334.63,N,1002.31,E,009.9,74.0,311216,,S
Dez 31, 2016 2:51:19 AM gps.NMEA.utils.ChecksumUtilities getCRC
INFORMATION: Created CRC (40)  for Sentence: $GPRMC,025119,A,5334.63,N,1002.31,E,009.9,74.0,311216,,S
Dez 31, 2016 2:51:19 AM gps.NMEA.utils.ChecksumUtilities isChecksumValid
INFORMATION: Sentence: $GPRMC,025119,A,5334.63,N,1002.31,E,009.9,74.0,311216,,S*40 is valid
Dez 31, 2016 2:51:20 AM gps.NMEA.utils.ChecksumUtilities getCRC
INFORMATION: Created CRC (4B)  for Sentence: $GPGGA,025120,5334.74,N,1002.39,E,8.0,00,1.9,150.3,M,0,M,,
Dez 31, 2016 2:51:20 AM gps.NMEA.utils.ChecksumUtilities getCRC
INFORMATION: Created CRC (4B)  for Sentence: $GPGGA,025120,5334.74,N,1002.39,E,8.0,00,1.9,150.3,M,0,M,,
Dez 31, 2016 2:51:20 AM gps.NMEA.utils.ChecksumUtilities isChecksumValid
INFORMATION: Sentence: $GPGGA,025120,5334.74,N,1002.39,E,8.0,00,1.9,150.3,M,0,M,,*4B is valid
Dez 31, 2016 2:51:20 AM gps.NMEA.utils.ChecksumUtilities getCRC
INFORMATION: Created CRC (4E)  for Sentence: $GPRMC,025120,A,5334.85,N,1002.45,E,010.1,48.0,311216,,S
Dez 31, 2016 2:51:20 AM gps.NMEA.utils.ChecksumUtilities getCRC
INFORMATION: Created CRC (4E)  for Sentence: $GPRMC,025120,A,5334.85,N,1002.45,E,010.1,48.0,311216,,S
Dez 31, 2016 2:51:20 AM gps.NMEA.utils.ChecksumUtilities isChecksumValid
INFORMATION: Sentence: $GPRMC,025120,A,5334.85,N,1002.45,E,010.1,48.0,311216,,S*4E is valid
Dez 31, 2016 2:51:21 AM gps.NMEA.utils.ChecksumUtilities getCRC
INFORMATION: Created CRC (48)  for Sentence: $GPGGA,025121,5334.89,N,1002.56,E,8.0,00,1.7,150.4,M,0,M,,
Dez 31, 2016 2:51:21 AM gps.NMEA.utils.ChecksumUtilities getCRC
INFORMATION: Created CRC (48)  for Sentence: $GPGGA,025121,5334.89,N,1002.56,E,8.0,00,1.7,150.4,M,0,M,,
Dez 31, 2016 2:51:21 AM gps.NMEA.utils.ChecksumUtilities isChecksumValid
INFORMATION: Sentence: $GPGGA,025121,5334.89,N,1002.56,E,8.0,00,1.7,150.4,M,0,M,,*48 is valid
Dez 31, 2016 2:51:21 AM gps.NMEA.utils.ChecksumUtilities getCRC
INFORMATION: Created CRC (4E)  for Sentence: $GPRMC,025121,A,5334.89,N,1002.56,E,010.1,12.0,311216,,S
Dez 31, 2016 2:51:21 AM gps.NMEA.utils.ChecksumUtilities getCRC
INFORMATION: Created CRC (4E)  for Sentence: $GPRMC,025121,A,5334.89,N,1002.56,E,010.1,12.0,311216,,S
Dez 31, 2016 2:51:21 AM gps.NMEA.utils.ChecksumUtilities isChecksumValid
INFORMATION: Sentence: $GPRMC,025121,A,5334.89,N,1002.56,E,010.1,12.0,311216,,S*4E is valid
Dez 31, 2016 2:51:22 AM gps.NMEA.utils.ChecksumUtilities getCRC
INFORMATION: Created CRC (5F)  for Sentence: $GPGGA,025122,5335.06,N,1002.66,W,8.0,03,1.7,150.4,M,0,M,,
Dez 31, 2016 2:51:22 AM gps.NMEA.utils.ChecksumUtilities getCRC
INFORMATION: Created CRC (5F)  for Sentence: $GPGGA,025122,5335.06,N,1002.66,W,8.0,03,1.7,150.4,M,0,M,,
Dez 31, 2016 2:51:22 AM gps.NMEA.utils.ChecksumUtilities isChecksumValid
INFORMATION: Sentence: $GPGGA,025122,5335.06,N,1002.66,W,8.0,03,1.7,150.4,M,0,M,,*5F is valid
Dez 31, 2016 2:51:22 AM gps.NMEA.utils.ChecksumUtilities getCRC
INFORMATION: Created CRC (6F)  for Sentence: $GPRMC,025122,A,5335.06,N,1002.66,W,010.0,362.0,311216,,S
Dez 31, 2016 2:51:22 AM gps.NMEA.utils.ChecksumUtilities getCRC
INFORMATION: Created CRC (6F)  for Sentence: $GPRMC,025122,A,5335.06,N,1002.66,W,010.0,362.0,311216,,S
Dez 31, 2016 2:51:22 AM gps.NMEA.utils.ChecksumUtilities isChecksumValid
INFORMATION: Sentence: $GPRMC,025122,A,5335.06,N,1002.66,W,010.0,362.0,311216,,S*6F is valid
Dez 31, 2016 2:51:23 AM gps.NMEA.utils.ChecksumUtilities getCRC
INFORMATION: Created CRC (48)  for Sentence: $GPGGA,025123,5335.09,N,1002.75,E,8.0,02,1.8,150.3,M,0,M,,
Dez 31, 2016 2:51:23 AM gps.NMEA.utils.ChecksumUtilities getCRC
INFORMATION: Created CRC (48)  for Sentence: $GPGGA,025123,5335.09,N,1002.75,E,8.0,02,1.8,150.3,M,0,M,,
Dez 31, 2016 2:51:23 AM gps.NMEA.utils.ChecksumUtilities isChecksumValid
INFORMATION: Sentence: $GPGGA,025123,5335.09,N,1002.75,E,8.0,02,1.8,150.3,M,0,M,,*48 is valid
Dez 31, 2016 2:51:23 AM gps.NMEA.utils.ChecksumUtilities getCRC
INFORMATION: Created CRC (4C)  for Sentence: $GPRMC,025123,A,5335.09,N,1002.75,E,010.1,92.0,311216,,S
Dez 31, 2016 2:51:23 AM gps.NMEA.utils.ChecksumUtilities getCRC
INFORMATION: Created CRC (4C)  for Sentence: $GPRMC,025123,A,5335.09,N,1002.75,E,010.1,92.0,311216,,S
Dez 31, 2016 2:51:23 AM gps.NMEA.utils.ChecksumUtilities isChecksumValid
INFORMATION: Sentence: $GPRMC,025123,A,5335.09,N,1002.75,E,010.1,92.0,311216,,S*4C is valid
Dez 31, 2016 2:51:24 AM gps.NMEA.utils.ChecksumUtilities getCRC
INFORMATION: Created CRC (46)  for Sentence: $GPGGA,025124,5335.18,N,1002.92,E,8.0,11,1.9,150.0,M,0,M,,
Dez 31, 2016 2:51:24 AM gps.NMEA.utils.ChecksumUtilities getCRC
INFORMATION: Created CRC (46)  for Sentence: $GPGGA,025124,5335.18,N,1002.92,E,8.0,11,1.9,150.0,M,0,M,,
Dez 31, 2016 2:51:24 AM gps.NMEA.utils.ChecksumUtilities isChecksumValid
INFORMATION: Sentence: $GPGGA,025124,5335.18,N,1002.92,E,8.0,11,1.9,150.0,M,0,M,,*46 is valid
Dez 31, 2016 2:51:24 AM gps.NMEA.utils.ChecksumUtilities getCRC
INFORMATION: Created CRC (40)  for Sentence: $GPRMC,025124,A,5335.18,N,1002.92,E,010.1,18.0,311216,,S
Dez 31, 2016 2:51:24 AM gps.NMEA.utils.ChecksumUtilities getCRC
INFORMATION: Created CRC (40)  for Sentence: $GPRMC,025124,A,5335.18,N,1002.92,E,010.1,18.0,311216,,S
Dez 31, 2016 2:51:24 AM gps.NMEA.utils.ChecksumUtilities isChecksumValid
INFORMATION: Sentence: $GPRMC,025124,A,5335.18,N,1002.92,E,010.1,18.0,311216,,S*40 is valid
Dez 31, 2016 2:51:25 AM gps.NMEA.utils.ChecksumUtilities getCRC
INFORMATION: Created CRC (44)  for Sentence: $GPGGA,025125,5335.35,S,1002.99,W,8.0,08,1.8,149.9,M,0,M,,
Dez 31, 2016 2:51:25 AM gps.NMEA.utils.ChecksumUtilities getCRC
INFORMATION: Created CRC (44)  for Sentence: $GPGGA,025125,5335.35,S,1002.99,W,8.0,08,1.8,149.9,M,0,M,,
Dez 31, 2016 2:51:25 AM gps.NMEA.utils.ChecksumUtilities isChecksumValid
INFORMATION: Sentence: $GPGGA,025125,5335.35,S,1002.99,W,8.0,08,1.8,149.9,M,0,M,,*44 is valid
Dez 31, 2016 2:51:25 AM gps.NMEA.utils.ChecksumUtilities getCRC
INFORMATION: Created CRC (71)  for Sentence: $GPRMC,025125,A,5335.35,S,1002.99,W,010.0,223.0,311216,,S
Dez 31, 2016 2:51:25 AM gps.NMEA.utils.ChecksumUtilities getCRC
INFORMATION: Created CRC (71)  for Sentence: $GPRMC,025125,A,5335.35,S,1002.99,W,010.0,223.0,311216,,S
Dez 31, 2016 2:51:25 AM gps.NMEA.utils.ChecksumUtilities isChecksumValid
INFORMATION: Sentence: $GPRMC,025125,A,5335.35,S,1002.99,W,010.0,223.0,311216,,S*71 is valid
