0    [main] INFO  ParserFactory$ParserThread  - $GPGGA,181233,5333.56,N,1001.49,E,8.0,11,2.1,15.2,M,0,M,,*7C
880  [main] INFO  ParserFactory$ParserThread  - $GPRMC,181234,A,5333.62,N,1001.61,E,010.1,14.0,130414,,S*40
880  [main] INFO  ParserFactory$ParserThread  - $GPGGA,181234,5333.62,N,1001.61,E,8.0,07,2.1,15.4,M,0,M,,*77
1864 [main] INFO  ParserFactory$ParserThread  - $GPRMC,181235,A,5333.67,N,1001.7,E,010.0,52.0,130414,,S*77
1873 [main] INFO  ParserFactory$ParserThread  - $GPGGA,181235,5333.7,N,1001.82,W,8.0,03,2.2,15.8,M,0,M,,*51
2858 [main] INFO  ParserFactory$ParserThread  - $GPRMC,181236,A,5333.73,S,1001.84,W,010.1,205.0,130414,,S*74
2967 [main] INFO  ParserFactory$ParserThread  - $GPGGA,181236,5333.85,N,1001.87,W,8.0,10,2.2,15.5,M,0,M,,*62
3835 [main] INFO  ParserFactory$ParserThread  - $GPRMC,181237,A,5333.95,N,1001.99,W,010.1,385.0,130414,,S*65
3944 [main] INFO  ParserFactory$ParserThread  - $GPGGA,181237,5333.95,N,1002.12,W,8.0,09,2.4,15.3,M,0,M,,*65
4819 [main] INFO  ParserFactory$ParserThread  - $GPRMC,181238,A,5333.98,N,1002.2,W,010.1,396.0,130414,,S*54
4936 [main] INFO  ParserFactory$ParserThread  - $GPGGA,181238,5334.05,N,1002.29,W,8.0,04,2.5,14.9,M,0,M,,*6B
5811 [main] INFO  ParserFactory$ParserThread  - $GPRMC,181239,A,5334.1,N,1002.42,E,010.0,13.0,130414,,S*7B
5921 [main] INFO  ParserFactory$ParserThread  - $GPGGA,181239,5334.13,S,1002.54,E,8.0,10,2.5,14.7,M,0,M,,*63
6804 [main] INFO  ParserFactory$ParserThread  - $GPRMC,181240,A,5334.24,N,1002.6,E,010.0,91.0,130414,,S*78
6913 [main] INFO  ParserFactory$ParserThread  - $GPGGA,181240,5334.29,N,1002.74,E,8.0,11,2.3,14.6,M,0,M,,*7D
7788 [main] INFO  ParserFactory$ParserThread  - $GPRMC,181241,A,5334.39,N,1002.86,E,010.1,3.0,130414,,S*77
7898 [main] INFO  ParserFactory$ParserThread  - $GPGGA,181241,5334.41,N,1002.88,E,8.0,04,2.3,14.6,M,0,M,,*75
8773 [main] INFO  ParserFactory$ParserThread  - $GPRMC,181242,A,5334.55,S,1002.94,E,010.1,185.0,130414,,S*6F
8882 [main] INFO  ParserFactory$ParserThread  - $GPGGA,181242,5334.55,S,1003.07,W,8.0,09,2.1,15.0,M,0,M,,*72
9761 [main] INFO  ParserFactory$ParserThread  - $GPRMC,181243,A,5334.69,S,1003.2,W,010.1,257.0,130414,,S*41
9980 [main] INFO  ParserFactory$ParserThread  - $GPGGA,181243,5334.7,S,1003.26,W,8.0,01,2.1,15.1,M,0,M,,*4E
10752 [main] INFO  ParserFactory$ParserThread  - $GPRMC,181244,A,5334.82,N,1003.29,W,010.1,368.0,130414,,S*6A
10971 [main] INFO  ParserFactory$ParserThread  - $GPGGA,181244,5334.85,N,1003.32,E,8.0,02,2.1,15.1,M,0,M,,*7A
11737 [main] INFO  ParserFactory$ParserThread  - $GPRMC,181245,A,5334.87,N,1003.33,W,010.0,366.0,130414,,S*6A
11962 [main] INFO  ParserFactory$ParserThread  - $GPGGA,181245,5335.02,N,1003.44,W,8.0,08,2.2,15.0,M,0,M,,*6E
12728 [main] INFO  ParserFactory$ParserThread  - $GPRMC,181245,A,5335.03,S,1003.56,W,010.1,258.0,130414,,S*74
12947 [main] INFO  ParserFactory$ParserThread  - $GPGGA,181246,5335.14,S,1003.68,W,8.0,00,2.3,14.9,M,0,M,,*78
13719 [main] INFO  ParserFactory$ParserThread  - $GPRMC,181246,A,5335.17,S,1003.74,W,010.0,288.0,130414,,S*7E
13938 [main] INFO  ParserFactory$ParserThread  - $GPGGA,181247,5335.19,S,1003.85,W,8.0,00,2.2,14.5,M,0,M,,*7A
14703 [main] INFO  ParserFactory$ParserThread  - $GPRMC,181247,A,5335.29,S,1003.89,E,010.0,103.0,130414,,S*62
14913 [main] INFO  ParserFactory$ParserThread  - $GPGGA,181248,5335.43,S,1003.95,E,8.0,00,2.1,14.4,M,0,M,,*6B
15679 [main] INFO  ParserFactory$ParserThread  - $GPRMC,181248,A,5335.51,S,1004.07,W,010.2,247.0,130414,,S*70
15897 [main] INFO  ParserFactory$ParserThread  - $GPGGA,181249,5335.53,S,1004.07,E,8.0,05,2.3,14.6,M,0,M,,*62
16667 [main] INFO  ParserFactory$ParserThread  - $GPRMC,181249,A,5335.64,N,1004.13,E,010.1,39.0,130414,,S*45
16885 [main] INFO  ParserFactory$ParserThread  - $GPGGA,181250,5335.72,N,1004.16,W,8.0,09,2.4,14.9,M,0,M,,*62
17651 [main] INFO  ParserFactory$ParserThread  - $GPRMC,181250,A,5335.85,N,1004.21,W,010.0,330.0,130414,,S*6A
17876 [main] INFO  ParserFactory$ParserThread  - $GPGGA,181251,5335.9,N,1004.34,W,8.0,04,2.2,15.3,M,0,M,,*5F
18642 [main] INFO  ParserFactory$ParserThread  - $GPRMC,181251,A,5336.04,S,1004.43,W,010.1,222.0,130414,,S*7B
18970 [main] INFO  ParserFactory$ParserThread  - $GPGGA,181252,5336.06,S,1004.51,W,8.0,01,2.3,15.2,M,0,M,,*7B
19648 [main] INFO  ParserFactory$ParserThread  - $GPRMC,181252,A,5336.09,S,1004.51,W,010.0,260.0,130414,,S*71
19976 [main] INFO  ParserFactory$ParserThread  - $GPGGA,181253,5336.09,S,1004.64,W,8.0,02,2.2,15.1,M,0,M,,*72
20638 [main] INFO  ParserFactory$ParserThread  - $GPRMC,181253,A,5336.22,N,1004.73,W,010.0,378.0,130414,,S*6C
20967 [main] INFO  ParserFactory$ParserThread  - $GPGGA,181254,5336.31,N,1004.81,W,8.0,00,2.3,15.3,M,0,M,,*69
21623 [main] INFO  ParserFactory$ParserThread  - $GPRMC,181254,A,5336.34,S,1004.85,W,010.0,251.0,130414,,S*72
21942 [main] INFO  ParserFactory$ParserThread  - $GPGGA,181255,5336.47,S,1004.87,E,8.0,07,2.1,15.5,M,0,M,,*63
22599 [main] INFO  ParserFactory$ParserThread  - $GPRMC,181255,A,5336.62,S,1004.96,E,010.0,117.0,130414,,S*61
22927 [main] INFO  ParserFactory$ParserThread  - $GPGGA,181256,5336.75,S,1005.06,W,8.0,09,2.0,15.6,M,0,M,,*77
23590 [main] INFO  ParserFactory$ParserThread  - $GPRMC,181256,A,5336.89,S,1005.2,W,010.1,233.0,130414,,S*4D
23918 [main] INFO  ParserFactory$ParserThread  - $GPGGA,181257,5337.0,S,1005.3,W,8.0,09,2.0,15.8,M,0,M,,*7E
24574 [main] INFO  ParserFactory$ParserThread  - $GPRMC,181257,A,5337.1,S,1005.32,E,010.0,109.0,130414,,S*57
24908 [main] INFO  ParserFactory$ParserThread  - $GPGGA,181258,5337.16,S,1005.44,W,8.0,01,2.1,16.2,M,0,M,,*75
25564 [main] INFO  ParserFactory$ParserThread  - $GPRMC,181258,A,5337.24,S,1005.54,W,010.1,220.0,130414,,S*74
25892 [main] INFO  ParserFactory$ParserThread  - $GPGGA,181259,5337.3,S,1005.68,W,8.0,08,2.3,16.4,M,0,M,,*43
26554 [main] INFO  ParserFactory$ParserThread  - $GPRMC,181259,A,5337.39,N,1005.74,W,010.1,330.0,130414,,S*66
26883 [main] INFO  ParserFactory$ParserThread  - $GPGGA,181300,5337.44,N,1005.87,W,8.0,03,2.5,16.5,M,0,M,,*6D
27539 [main] INFO  ParserFactory$ParserThread  - $GPRMC,181300,A,5337.51,N,1005.93,W,010.1,326.0,130414,,S*6B
27982 [main] INFO  ParserFactory$ParserThread  - $GPGGA,181301,5337.59,S,1005.93,W,8.0,10,2.7,16.3,M,0,M,,*7E
28529 [main] INFO  ParserFactory$ParserThread  - $GPRMC,181301,A,5337.59,S,1005.98,W,010.1,263.0,130414,,S*74
28966 [main] INFO  ParserFactory$ParserThread  - $GPGGA,181302,5337.64,S,1006.04,W,8.0,07,2.9,16.6,M,0,M,,*73
29519 [main] INFO  ParserFactory$ParserThread  - $GPRMC,181302,A,5337.69,N,1006.18,W,010.2,326.0,130414,,S*61
29956 [main] INFO  ParserFactory$ParserThread  - $GPGGA,181303,5337.78,S,1006.25,W,8.0,04,2.9,16.5,M,0,M,,*7C
30503 [main] INFO  ParserFactory$ParserThread  - $GPRMC,181303,A,5337.78,S,1006.25,W,010.2,205.0,130414,,S*73
30947 [main] INFO  ParserFactory$ParserThread  - $GPGGA,181304,5337.89,S,1006.34,E,8.0,06,2.9,16.9,M,0,M,,*69
31494 [main] INFO  ParserFactory$ParserThread  - $GPRMC,181304,A,5337.96,S,1006.4,E,010.1,142.0,130414,,S*56
31931 [main] INFO  ParserFactory$ParserThread  - $GPGGA,181305,5338.09,S,1006.5,W,8.0,00,2.8,17.1,M,0,M,,*41
32484 [main] INFO  ParserFactory$ParserThread  - $GPRMC,181305,A,5338.21,N,1006.59,W,010.2,368.0,130414,,S*6A
32921 [main] INFO  ParserFactory$ParserThread  - $GPGGA,181306,5338.33,S,1006.61,W,8.0,02,2.7,16.7,M,0,M,,*73
33468 [main] INFO  ParserFactory$ParserThread  - $GPRMC,181306,A,5338.45,S,1006.62,E,010.1,117.0,130414,,S*65
33912 [main] INFO  ParserFactory$ParserThread  - $GPGGA,181307,5338.6,S,1006.63,W,8.0,11,2.8,16.8,M,0,M,,*44
34459 [main] INFO  ParserFactory$ParserThread  - $GPRMC,181307,A,5338.74,S,1006.73,E,010.1,111.0,130414,,S*60
34897 [main] INFO  ParserFactory$ParserThread  - $GPGGA,181308,5338.81,S,1006.88,E,8.0,04,3.0,16.7,M,0,M,,*61
35449 [main] INFO  ParserFactory$ParserThread  - $GPRMC,181308,A,5338.82,S,1007.0,E,010.1,128.0,130414,,S*59
35886 [main] INFO  ParserFactory$ParserThread  - $GPGGA,181309,5338.9,S,1007.04,E,8.0,07,3.2,16.8,M,0,M,,*5B
36433 [main] INFO  ParserFactory$ParserThread  - $GPRMC,181309,A,5339.02,S,1007.12,E,010.1,188.0,130414,,S*68
36876 [main] INFO  ParserFactory$ParserThread  - $GPGGA,181310,5339.04,S,1007.23,E,8.0,06,3.3,17.0,M,0,M,,*63
37423 [main] INFO  ParserFactory$ParserThread  - $GPRMC,181310,A,5339.08,S,1007.27,E,010.2,197.0,130414,,S*61
37860 [main] INFO  ParserFactory$ParserThread  - $GPGGA,181311,5339.1,S,1007.28,E,8.0,02,3.3,16.7,M,0,M,,*5E
38412 [main] INFO  ParserFactory$ParserThread  - $GPRMC,181311,A,5339.22,N,1007.41,E,010.2,86.0,130414,,S*44
38959 [main] INFO  ParserFactory$ParserThread  - $GPGGA,181312,5339.22,N,1007.45,E,8.0,00,3.4,16.8,M,0,M,,*70
39404 [main] INFO  ParserFactory$ParserThread  - $GPRMC,181312,A,5339.22,N,1007.59,W,010.2,308.0,130414,,S*69
39950 [main] INFO  ParserFactory$ParserThread  - $GPGGA,181313,5339.3,N,1007.62,W,8.0,05,3.5,16.8,M,0,M,,*51
40388 [main] INFO  ParserFactory$ParserThread  - $GPRMC,181313,A,5339.37,N,1007.71,E,010.1,91.0,130414,,S*44
40941 [main] INFO  ParserFactory$ParserThread  - $GPGGA,181314,5339.38,N,1007.77,E,8.0,03,3.6,16.9,M,0,M,,*7C
41379 [main] INFO  ParserFactory$ParserThread  - $GPRMC,181314,A,5339.49,N,1007.82,W,010.1,315.0,130414,,S*6B
41926 [main] INFO  ParserFactory$ParserThread  - $GPGGA,181315,5339.52,S,1007.82,W,8.0,11,3.6,17.1,M,0,M,,*7E
42368 [main] INFO  ParserFactory$ParserThread  - $GPRMC,181315,A,5339.52,S,1007.82,W,010.0,237.0,130414,,S*7D
42915 [main] INFO  ParserFactory$ParserThread  - $GPGGA,181316,5339.56,S,1007.92,W,8.0,00,3.5,17.1,M,0,M,,*7B
43353 [main] INFO  ParserFactory$ParserThread  - $GPRMC,181316,A,5339.56,S,1007.92,W,010.2,228.0,130414,,S*77
43905 [main] INFO  ParserFactory$ParserThread  - $GPGGA,181317,5339.7,N,1008.02,E,8.0,06,3.7,17.2,M,0,M,,*40
44343 [main] INFO  ParserFactory$ParserThread  - $GPRMC,181317,A,5339.7,N,1008.02,E,010.1,3.0,130414,,S*43
44890 [main] INFO  ParserFactory$ParserThread  - $GPGGA,181318,5339.88,N,1008.15,E,8.0,11,3.6,17.4,M,0,M,,*7F
45334 [main] INFO  ParserFactory$ParserThread  - $GPRMC,181318,A,5339.88,N,1008.15,E,010.1,27.0,130414,,S*4B
45880 [main] INFO  ParserFactory$ParserThread  - $GPGGA,181319,5339.96,N,1008.38,W,8.0,05,3.6,17.6,M,0,M,,*6B
46318 [main] INFO  ParserFactory$ParserThread  - $GPRMC,181319,A,5339.96,N,1008.38,W,010.1,359.0,130414,,S*62
46979 [main] INFO  ParserFactory$ParserThread  - $GPGGA,181320,5340.06,S,1008.55,W,8.0,11,3.4,17.5,M,0,M,,*74
47308 [main] INFO  ParserFactory$ParserThread  - $GPRMC,181320,A,5340.06,S,1008.55,W,010.2,283.0,130414,,S*7C
47964 [main] INFO  ParserFactory$ParserThread  - $GPGGA,181321,5340.28,S,1008.6,W,8.0,05,3.6,17.3,M,0,M,,*4E
48297 [main] INFO  ParserFactory$ParserThread  - $GPRMC,181321,A,5340.28,S,1008.6,W,010.1,278.0,130414,,S*40
48953 [main] INFO  ParserFactory$ParserThread  - $GPGGA,181322,5340.31,N,1008.85,E,8.0,07,3.5,17.2,M,0,M,,*71
49281 [main] INFO  ParserFactory$ParserThread  - $GPRMC,181322,A,5340.31,N,1008.85,E,010.2,97.0,130414,,S*4F
49944 [main] INFO  ParserFactory$ParserThread  - $GPGGA,181323,5340.41,N,1008.86,W,8.0,05,3.5,17.0,M,0,M,,*66
50272 [main] INFO  ParserFactory$ParserThread  - $GPRMC,181323,A,5340.41,N,1008.86,W,010.1,356.0,130414,,S*65
50928 [main] INFO  ParserFactory$ParserThread  - $GPGGA,181324,5340.57,N,1009.05,W,8.0,00,3.5,17.3,M,0,M,,*6A
51261 [main] INFO  ParserFactory$ParserThread  - $GPRMC,181324,A,5340.57,N,1009.05,W,010.2,374.0,130414,,S*6C
51917 [main] INFO  ParserFactory$ParserThread  - $GPGGA,181325,5340.72,N,1009.1,W,8.0,01,3.4,17.5,M,0,M,,*5E
52245 [main] INFO  ParserFactory$ParserThread  - $GPRMC,181325,A,5340.72,N,1009.1,W,010.2,391.0,130414,,S*55
52907 [main] INFO  ParserFactory$ParserThread  - $GPGGA,181326,5340.84,N,1009.26,W,8.0,06,3.5,17.8,M,0,M,,*6A
53235 [main] INFO  ParserFactory$ParserThread  - $GPRMC,181326,A,5340.84,N,1009.26,W,010.2,317.0,130414,,S*64
53891 [main] INFO  ParserFactory$ParserThread  - $GPGGA,181327,5340.99,N,1009.41,E,8.0,07,3.5,17.9,M,0,M,,*74
54224 [main] INFO  ParserFactory$ParserThread  - $GPRMC,181327,A,5340.99,N,1009.41,E,010.1,24.0,130414,,S*4A
54881 [main] INFO  ParserFactory$ParserThread  - $GPGGA,181328,5341.21,N,1009.67,E,8.0,10,3.5,17.8,M,0,M,,*7A
55209 [main] INFO  ParserFactory$ParserThread  - $GPRMC,181328,A,5341.21,N,1009.67,E,010.2,78.0,130414,,S*49
55980 [main] INFO  ParserFactory$ParserThread  - $GPGGA,181329,5341.3,N,1009.86,E,8.0,09,3.5,17.8,M,0,M,,*4C
56199 [main] INFO  ParserFactory$ParserThread  - $GPRMC,181329,A,5341.3,N,1009.86,E,010.2,24.0,130414,,S*7E
56965 [main] INFO  ParserFactory$ParserThread  - $GPGGA,181330,5341.48,S,1010.02,E,8.0,05,3.4,17.4,M,0,M,,*63
57193 [main] INFO  ParserFactory$ParserThread  - $GPRMC,181330,A,5341.48,S,1010.02,E,010.2,146.0,130414,,S*65
57959 [main] INFO  ParserFactory$ParserThread  - $GPGGA,181331,5341.6,S,1010.2,E,8.0,03,3.4,17.0,M,0,M,,*6A
58178 [main] INFO  ParserFactory$ParserThread  - $GPRMC,181331,A,5341.6,S,1010.2,E,010.2,121.0,130414,,S*6F
58947 [main] INFO  ParserFactory$ParserThread  - $GPGGA,181332,5341.71,S,1010.36,E,8.0,07,3.5,17.0,M,0,M,,*6B
59166 [main] INFO  ParserFactory$ParserThread  - $GPRMC,181332,A,5341.71,S,1010.36,E,010.2,112.0,130414,,S*6B
59932 [main] INFO  ParserFactory$ParserThread  - $GPGGA,181333,5341.89,S,1010.54,E,8.0,05,3.5,17.3,M,0,M,,*68
60156 [main] INFO  ParserFactory$ParserThread  - $GPRMC,181333,A,5341.89,S,1010.54,E,010.1,136.0,130414,,S*6C
60922 [main] INFO  ParserFactory$ParserThread  - $GPGGA,181334,5342.07,N,1010.7,W,8.0,10,3.5,17.4,M,0,M,,*50
61141 [main] INFO  ParserFactory$ParserThread  - $GPRMC,181334,A,5342.07,N,1010.7,W,010.2,362.0,130414,,S*57
61911 [main] INFO  ParserFactory$ParserThread  - $GPGGA,181335,5342.24,N,1010.84,E,8.0,09,3.4,17.4,M,0,M,,*70
62130 [main] INFO  ParserFactory$ParserThread  - $GPRMC,181335,A,5342.24,N,1010.84,E,010.2,91.0,130414,,S*41
62895 [main] INFO  ParserFactory$ParserThread  - $GPGGA,181336,5342.4,N,1010.99,W,8.0,06,3.5,17.5,M,0,M,,*50
63119 [main] INFO  ParserFactory$ParserThread  - $GPRMC,181336,A,5342.4,N,1010.99,W,010.2,399.0,130414,,S*55
63885 [main] INFO  ParserFactory$ParserThread  - $GPGGA,181337,5342.44,N,1011.06,W,8.0,11,3.7,17.3,M,0,M,,*60
64104 [main] INFO  ParserFactory$ParserThread  - $GPRMC,181337,A,5342.44,N,1011.06,W,010.2,316.0,130414,,S*60
64874 [main] INFO  ParserFactory$ParserThread  - $GPGGA,181338,5342.6,N,1011.24,W,8.0,03,3.6,17.3,M,0,M,,*5B
65093 [main] INFO  ParserFactory$ParserThread  - $GPRMC,181338,A,5342.6,N,1011.24,W,010.3,322.0,130414,,S*5F
65968 [main] INFO  ParserFactory$ParserThread  - $GPGGA,181339,5342.65,N,1011.41,W,8.0,03,3.6,17.5,M,0,M,,*6A
66083 [main] INFO  ParserFactory$ParserThread  - $GPRMC,181339,A,5342.65,N,1011.41,W,010.2,393.0,130414,,S*63
66958 [main] INFO  ParserFactory$ParserThread  - $GPGGA,181340,5342.81,N,1011.5,E,8.0,09,3.6,17.5,M,0,M,,*46
67067 [main] INFO  ParserFactory$ParserThread  - $GPRMC,181340,A,5342.81,N,1011.5,E,010.3,91.0,130414,,S*75
67945 [main] INFO  ParserFactory$ParserThread  - $GPGGA,181341,5343.03,N,1011.56,W,8.0,04,3.6,17.4,M,0,M,,*64
68054 [main] INFO  ParserFactory$ParserThread  - $GPRMC,181341,A,5343.03,N,1011.56,W,010.3,300.0,130414,,S*60
68929 [main] INFO  ParserFactory$ParserThread  - $GPGGA,181342,5343.24,N,1011.72,E,8.0,01,3.7,17.6,M,0,M,,*70
69043 [main] INFO  ParserFactory$ParserThread  - $GPRMC,181342,A,5343.24,N,1011.72,E,010.2,81.0,130414,,S*49
69918 [main] INFO  ParserFactory$ParserThread  - $GPGGA,181343,5343.33,S,1011.72,E,8.0,06,3.7,17.6,M,0,M,,*6D
70027 [main] INFO  ParserFactory$ParserThread  - $GPRMC,181343,A,5343.33,S,1011.72,E,010.1,107.0,130414,,S*6F
70908 [main] INFO  ParserFactory$ParserThread  - $GPGGA,181344,5343.58,S,1011.92,E,8.0,08,3.6,17.3,M,0,M,,*63
71017 [main] INFO  ParserFactory$ParserThread  - $GPRMC,181344,A,5343.58,S,1011.92,E,010.2,155.0,130414,,S*6F
71892 [main] INFO  ParserFactory$ParserThread  - $GPGGA,181345,5343.69,S,1012.0,E,8.0,01,3.7,17.5,M,0,M,,*56
72006 [main] INFO  ParserFactory$ParserThread  - $GPRMC,181345,A,5343.69,S,1012.0,E,010.1,180.0,130414,,S*5F
72881 [main] INFO  ParserFactory$ParserThread  - $GPGGA,181346,5343.73,N,1012.14,E,8.0,05,3.9,17.8,M,0,M,,*71
72990 [main] INFO  ParserFactory$ParserThread  - $GPRMC,181346,A,5343.73,N,1012.14,E,010.3,61.0,130414,,S*43
73876 [main] INFO  ParserFactory$ParserThread  - $GPGGA,181347,5343.76,S,1012.33,E,8.0,01,3.8,17.5,M,0,M,,*65
73985 [main] INFO  ParserFactory$ParserThread  - $GPRMC,181347,A,5343.76,S,1012.33,E,010.2,122.0,130414,,S*68
74969 [main] INFO  ParserFactory$ParserThread  - $GPGGA,181348,5343.87,N,1012.43,E,8.0,04,3.7,17.9,M,0,M,,*78
74969 [main] INFO  ParserFactory$ParserThread  - $GPRMC,181348,A,5343.87,N,1012.43,E,010.2,92.0,130414,,S*49
75953 [main] INFO  ParserFactory$ParserThread  - $GPGGA,181349,5343.99,N,1012.54,E,8.0,03,3.8,18.0,M,0,M,,*7E
75953 [main] INFO  ParserFactory$ParserThread  - $GPRMC,181349,A,5343.99,N,1012.54,E,010.2,72.0,130414,,S*4F
76937 [main] INFO  ParserFactory$ParserThread  - $GPGGA,181350,5344.09,N,1012.59,E,8.0,07,3.8,17.8,M,0,M,,*76
76937 [main] INFO  ParserFactory$ParserThread  - $GPRMC,181350,A,5344.09,N,1012.59,E,010.2,79.0,130414,,S*4F
77925 [main] INFO  ParserFactory$ParserThread  - $GPGGA,181351,5344.16,N,1012.62,E,8.0,02,4.0,18.0,M,0,M,,*7C
77925 [main] INFO  ParserFactory$ParserThread  - $GPRMC,181351,A,5344.16,N,1012.62,E,010.3,32.0,130414,,S*46
78910 [main] INFO  ParserFactory$ParserThread  - $GPRMC,181352,A,5344.36,N,1012.65,E,010.3,72.0,130414,,S*44
78916 [main] INFO  ParserFactory$ParserThread  - $GPGGA,181352,5344.36,N,1012.65,E,8.0,06,3.8,18.0,M,0,M,,*71
79902 [main] INFO  ParserFactory$ParserThread  - $GPRMC,181353,A,5344.51,N,1012.79,W,010.2,378.0,130414,,S*63
79902 [main] INFO  ParserFactory$ParserThread  - $GPGGA,181353,5344.52,N,1012.88,W,8.0,07,3.8,18.1,M,0,M,,*63
80887 [main] INFO  ParserFactory$ParserThread  - $GPRMC,181354,A,5344.53,N,1012.93,W,010.1,333.0,130414,,S*6E
80887 [main] INFO  ParserFactory$ParserThread  - $GPGGA,181354,5344.56,S,1013.02,W,8.0,10,3.7,18.2,M,0,M,,*74
81878 [main] INFO  ParserFactory$ParserThread  - $GPRMC,181355,A,5344.66,S,1013.15,W,010.1,239.0,130414,,S*70
81878 [main] INFO  ParserFactory$ParserThread  - $GPGGA,181355,5344.74,S,1013.2,W,8.0,07,3.5,18.5,M,0,M,,*46
82863 [main] INFO  ParserFactory$ParserThread  - $GPRMC,181356,A,5344.83,S,1013.29,W,010.2,232.0,130414,,S*7F
82868 [main] INFO  ParserFactory$ParserThread  - $GPGGA,181356,5344.84,N,1013.34,W,8.0,10,3.4,18.5,M,0,M,,*65
83852 [main] INFO  ParserFactory$ParserThread  - $GPRMC,181357,A,5344.97,S,1013.4,W,010.2,217.0,130414,,S*43
83962 [main] INFO  ParserFactory$ParserThread  - $GPGGA,181357,5345.08,S,1013.48,E,8.0,11,3.3,18.6,M,0,M,,*60
84834 [main] INFO  ParserFactory$ParserThread  - $GPRMC,181358,A,5345.16,S,1013.58,E,010.2,152.0,130414,,S*6D
84944 [main] INFO  ParserFactory$ParserThread  - $GPGGA,181358,5345.23,S,1013.69,E,8.0,10,3.3,18.7,M,0,M,,*65
85819 [main] INFO  ParserFactory$ParserThread  - $GPRMC,181359,A,5345.33,S,1013.71,E,010.2,149.0,130414,,S*6A
85932 [main] INFO  ParserFactory$ParserThread  - $GPGGA,181359,5345.47,S,1013.76,E,8.0,11,3.2,18.4,M,0,M,,*6B
86807 [main] INFO  ParserFactory$ParserThread  - $GPRMC,181400,A,5345.55,S,1013.79,W,010.3,287.0,130414,,S*7B
86916 [main] INFO  ParserFactory$ParserThread  - $GPGGA,181400,5345.67,S,1013.91,E,8.0,01,3.2,18.1,M,0,M,,*6F
87796 [main] INFO  ParserFactory$ParserThread  - $GPRMC,181401,A,5345.77,S,1014.04,E,010.3,123.0,130414,,S*68
87905 [main] INFO  ParserFactory$ParserThread  - $GPGGA,181401,5345.87,S,1014.13,W,8.0,00,3.3,18.0,M,0,M,,*7E
88780 [main] INFO  ParserFactory$ParserThread  - $GPRMC,181402,A,5345.97,N,1014.21,W,010.2,374.0,130414,,S*6C
88894 [main] INFO  ParserFactory$ParserThread  - $GPGGA,181402,5346.01,N,1014.28,W,8.0,06,3.2,17.8,M,0,M,,*65
89769 [main] INFO  ParserFactory$ParserThread  - $GPRMC,181403,A,5346.15,N,1014.3,E,010.3,83.0,130414,,S*7C
89878 [main] INFO  ParserFactory$ParserThread  - $GPGGA,181403,5346.27,N,1014.35,W,8.0,11,3.2,17.9,M,0,M,,*6B
90757 [main] INFO  ParserFactory$ParserThread  - $GPRMC,181404,A,5346.27,N,1014.42,E,010.2,86.0,130414,,S*4B
90976 [main] INFO  ParserFactory$ParserThread  - $GPGGA,181404,5346.34,N,1014.56,E,8.0,09,3.3,17.9,M,0,M,,*71
91745 [main] INFO  ParserFactory$ParserThread  - $GPRMC,181404,A,5346.4,N,1014.58,E,010.2,3.0,130414,,S*4C
91964 [main] INFO  ParserFactory$ParserThread  - $GPGGA,181405,5346.42,N,1014.64,W,8.0,03,3.1,17.9,M,0,M,,*6A
92730 [main] INFO  ParserFactory$ParserThread  - $GPRMC,181405,A,5346.52,S,1014.66,W,010.3,222.0,130414,,S*7C
92952 [main] INFO  ParserFactory$ParserThread  - $GPGGA,181406,5346.64,S,1014.73,W,8.0,07,3.1,18.2,M,0,M,,*76
93718 [main] INFO  ParserFactory$ParserThread  - $GPRMC,181406,A,5346.69,N,1014.84,W,010.3,303.0,130414,,S*64
93937 [main] INFO  ParserFactory$ParserThread  - $GPGGA,181407,5346.73,N,1014.87,E,8.0,10,3.2,18.3,M,0,M,,*71
94706 [main] INFO  ParserFactory$ParserThread  - $GPRMC,181407,A,5346.79,N,1014.9,W,010.2,363.0,130414,,S*56
94925 [main] INFO  ParserFactory$ParserThread  - $GPGGA,181408,5346.83,S,1014.96,W,8.0,04,3.1,18.4,M,0,M,,*7F
95690 [main] INFO  ParserFactory$ParserThread  - $GPRMC,181408,A,5346.95,S,1015.01,W,010.2,201.0,130414,,S*7A
95913 [main] INFO  ParserFactory$ParserThread  - $GPGGA,181409,5347.02,S,1015.02,W,8.0,01,3.0,18.2,M,0,M,,*78
96679 [main] INFO  ParserFactory$ParserThread  - $GPRMC,181409,A,5347.1,N,1015.13,W,010.3,333.0,130414,,S*58
96898 [main] INFO  ParserFactory$ParserThread  - $GPGGA,181410,5347.11,N,1015.15,W,8.0,00,2.8,18.2,M,0,M,,*61
97667 [main] INFO  ParserFactory$ParserThread  - $GPRMC,181410,A,5347.13,N,1015.29,W,010.2,312.0,130414,,S*68
97886 [main] INFO  ParserFactory$ParserThread  - $GPGGA,181411,5347.18,N,1015.34,W,8.0,07,2.9,18.2,M,0,M,,*6C
98652 [main] INFO  ParserFactory$ParserThread  - $GPRMC,181411,A,5347.2,N,1015.39,E,010.2,34.0,130414,,S*7D
98874 [main] INFO  ParserFactory$ParserThread  - $GPGGA,181412,5347.32,N,1015.47,E,8.0,09,2.9,18.1,M,0,M,,*7C
99640 [main] INFO  ParserFactory$ParserThread  - $GPRMC,181412,A,5347.36,N,1015.55,E,010.3,60.0,130414,,S*43
99968 [main] INFO  ParserFactory$ParserThread  - $GPGGA,181413,5347.5,N,1015.62,W,8.0,11,2.7,18.2,M,0,M,,*58
100628 [main] INFO  ParserFactory$ParserThread  - $GPRMC,181413,A,5347.63,N,1015.62,W,010.2,377.0,130414,,S*60
100956 [main] INFO  ParserFactory$ParserThread  - $GPGGA,181414,5347.69,N,1015.67,E,8.0,05,2.6,18.2,M,0,M,,*76
101613 [main] INFO  ParserFactory$ParserThread  - $GPRMC,181414,A,5347.75,N,1015.7,W,010.3,397.0,130414,,S*5C
101946 [main] INFO  ParserFactory$ParserThread  - $GPGGA,181415,5347.87,N,1015.7,W,8.0,02,2.5,18.2,M,0,M,,*57
102602 [main] INFO  ParserFactory$ParserThread  - $GPRMC,181415,A,5347.99,S,1015.71,W,010.2,248.0,130414,,S*71
102930 [main] INFO  ParserFactory$ParserThread  - $GPGGA,181416,5348.13,S,1015.81,W,8.0,11,2.5,18.1,M,0,M,,*74
103590 [main] INFO  ParserFactory$ParserThread  - $GPRMC,181416,A,5348.18,S,1015.82,W,010.3,273.0,130414,,S*71
103918 [main] INFO  ParserFactory$ParserThread  - $GPGGA,181417,5348.27,N,1015.89,W,8.0,11,2.5,18.1,M,0,M,,*67
104575 [main] INFO  ParserFactory$ParserThread  - $GPRMC,181417,A,5348.37,N,1015.89,E,010.3,3.0,130414,,S*7C
104907 [main] INFO  ParserFactory$ParserThread  - $GPGGA,181418,5348.42,S,1016.0,E,8.0,01,2.5,17.8,M,0,M,,*51
105563 [main] INFO  ParserFactory$ParserThread  - $GPRMC,181418,A,5348.43,S,1016.13,E,010.3,115.0,130414,,S*6B
105891 [main] INFO  ParserFactory$ParserThread  - $GPGGA,181419,5348.45,S,1016.24,E,8.0,07,2.5,17.4,M,0,M,,*6B
106551 [main] INFO  ParserFactory$ParserThread  - $GPRMC,181419,A,5348.55,S,1016.26,E,010.3,179.0,130414,,S*61
106879 [main] INFO  ParserFactory$ParserThread  - $GPGGA,181420,5348.67,S,1016.4,E,8.0,00,2.5,17.4,M,0,M,,*54
107536 [main] INFO  ParserFactory$ParserThread  - $GPRMC,181420,A,5348.71,S,1016.45,E,010.3,149.0,130414,,S*6B
107867 [main] INFO  ParserFactory$ParserThread  - $GPGGA,181421,5348.73,S,1016.51,E,8.0,09,2.4,17.2,M,0,M,,*6E
108524 [main] INFO  ParserFactory$ParserThread  - $GPRMC,181421,A,5348.82,S,1016.52,E,010.3,187.0,130414,,S*62
108961 [main] INFO  ParserFactory$ParserThread  - $GPGGA,181422,5348.86,S,1016.57,E,8.0,00,2.5,17.4,M,0,M,,*6F
109512 [main] INFO  ParserFactory$ParserThread  - $GPRMC,181422,A,5348.94,N,1016.63,E,010.2,81.0,130414,,S*4F
109949 [main] INFO  ParserFactory$ParserThread  - $GPGGA,181423,5349.07,N,1016.76,E,8.0,07,2.5,17.3,M,0,M,,*78
110496 [main] INFO  ParserFactory$ParserThread  - $GPRMC,181423,A,5349.12,N,1016.81,E,010.2,62.0,130414,,S*40
110938 [main] INFO  ParserFactory$ParserThread  - $GPGGA,181424,5349.15,N,1016.9,W,8.0,00,2.5,17.6,M,0,M,,*54
111485 [main] INFO  ParserFactory$ParserThread  - $GPRMC,181424,A,5349.23,N,1016.96,W,010.3,317.0,130414,,S*61
111922 [main] INFO  ParserFactory$ParserThread  - $GPGGA,181425,5349.31,N,1016.98,W,8.0,08,2.6,17.5,M,0,M,,*63
112473 [main] INFO  ParserFactory$ParserThread  - $GPRMC,181425,A,5349.42,N,1017.0,W,010.2,301.0,130414,,S*5F
112911 [main] INFO  ParserFactory$ParserThread  - $GPGGA,181426,5349.53,S,1017.14,W,8.0,06,2.6,17.4,M,0,M,,*73
113457 [main] INFO  ParserFactory$ParserThread  - $GPRMC,181426,A,5349.66,N,1017.25,W,010.3,306.0,130414,,S*6B
113899 [main] INFO  ParserFactory$ParserThread  - $GPGGA,181427,5349.73,S,1017.3,W,8.0,05,2.6,17.4,M,0,M,,*45
114446 [main] INFO  ParserFactory$ParserThread  - $GPRMC,181427,A,5349.74,S,1017.36,W,010.2,248.0,130414,,S*7C
114884 [main] INFO  ParserFactory$ParserThread  - $GPGGA,181428,5349.85,S,1017.47,W,8.0,08,2.7,17.4,M,0,M,,*7F
0    [main] INFO  ParserFactory$ParserThread  - $GPGGA,183219,5333.56,N,1001.42,E,8.0,08,2.1,14.9,M,0,M,,*7F
911  [main] INFO  ParserFactory$ParserThread  - $GPRMC,183220,A,5333.71,N,1001.6,W,009.9,301.0,261216,,S*52
913  [main] INFO  ParserFactory$ParserThread  - $GPGGA,183220,5333.71,N,1001.6,W,8.0,00,2.1,14.9,M,0,M,,*5A
1922 [main] INFO  ParserFactory$ParserThread  - $GPGGA,183221,5333.78,N,1001.86,W,8.0,11,2.2,14.7,M,0,M,,*67
2929 [main] INFO  ParserFactory$ParserThread  - $GPGGA,183222,5333.85,N,1001.91,E,8.0,06,2.4,14.4,M,0,M,,*71
3234 [main] INFO  ParserFactory$ParserThread  - $GPRMC,183222,A,5333.85,N,1001.91,E,010.0,88.0,261216,,S*44
3941 [main] INFO  ParserFactory$ParserThread  - $GPGGA,183223,5333.94,N,1002.09,E,8.0,01,2.2,14.3,M,0,M,,*74
4952 [main] INFO  ParserFactory$ParserThread  - $GPGGA,183224,5333.97,N,1002.24,W,8.0,04,2.0,13.9,M,0,M,,*67
5459 [main] INFO  ParserFactory$ParserThread  - $GPRMC,183224,A,5334.04,S,1002.31,W,010.0,283.0,261216,,S*73
5964 [main] INFO  ParserFactory$ParserThread  - $GPGGA,183225,5334.15,S,1002.42,W,8.0,01,1.9,14.2,M,0,M,,*75
6871 [main] INFO  ParserFactory$ParserThread  - $GPGGA,183226,5334.21,S,1002.55,W,8.0,05,1.7,14.1,M,0,M,,*7E
7777 [main] INFO  ParserFactory$ParserThread  - $GPRMC,183227,A,5334.31,S,1002.6,W,010.1,202.0,261216,,S*4A
7881 [main] INFO  ParserFactory$ParserThread  - $GPGGA,183227,5334.46,N,1002.74,W,8.0,02,1.7,14.5,M,0,M,,*63
8887 [main] INFO  ParserFactory$ParserThread  - $GPGGA,183228,5334.5,S,1002.79,W,8.0,04,1.7,14.6,M,0,M,,*4E
9893 [main] INFO  ParserFactory$ParserThread  - $GPGGA,183229,5334.69,S,1002.93,W,8.0,04,1.7,14.5,M,0,M,,*72
9999 [main] INFO  ParserFactory$ParserThread  - $GPRMC,183229,A,5334.69,S,1002.93,W,010.0,231.0,261216,,S*74
10910 [main] INFO  ParserFactory$ParserThread  - $GPGGA,183230,5334.78,N,1003.16,W,8.0,06,1.7,14.3,M,0,M,,*6F
11917 [main] INFO  ParserFactory$ParserThread  - $GPGGA,183231,5334.83,S,1003.31,W,8.0,05,1.8,14.3,M,0,M,,*7E
12322 [main] INFO  ParserFactory$ParserThread  - $GPRMC,183231,A,5334.83,S,1003.31,W,010.0,216.0,261216,,S*75
12926 [main] INFO  ParserFactory$ParserThread  - $GPGGA,183232,5334.87,S,1003.45,W,8.0,03,1.9,14.2,M,0,M,,*7C
13933 [main] INFO  ParserFactory$ParserThread  - $GPGGA,183233,5335.12,S,1003.59,E,8.0,02,1.9,13.9,M,0,M,,*62
14540 [main] INFO  ParserFactory$ParserThread  - $GPRMC,183233,A,5335.14,S,1003.67,E,010.1,166.0,261216,,S*6C
14943 [main] INFO  ParserFactory$ParserThread  - $GPGGA,183234,5335.17,N,1003.77,E,8.0,00,1.8,13.8,M,0,M,,*73
15948 [main] INFO  ParserFactory$ParserThread  - $GPGGA,183235,5335.2,N,1003.86,E,8.0,05,1.9,13.5,M,0,M,,*41
16855 [main] INFO  ParserFactory$ParserThread  - $GPRMC,183236,A,5335.31,N,1003.89,E,010.1,98.0,261216,,S*43
16957 [main] INFO  ParserFactory$ParserThread  - $GPGGA,183236,5335.32,N,1004.0,E,8.0,07,2.1,13.7,M,0,M,,*43
17964 [main] INFO  ParserFactory$ParserThread  - $GPGGA,183237,5335.48,N,1004.09,E,8.0,03,2.1,13.9,M,0,M,,*7C
18870 [main] INFO  ParserFactory$ParserThread  - $GPGGA,183238,5335.63,S,1004.17,E,8.0,06,2.2,13.9,M,0,M,,*6E
19173 [main] INFO  ParserFactory$ParserThread  - $GPRMC,183238,A,5335.63,S,1004.17,E,010.1,161.0,261216,,S*60
19876 [main] INFO  ParserFactory$ParserThread  - $GPGGA,183239,5335.71,S,1004.44,E,8.0,04,2.3,14.2,M,0,M,,*65
20882 [main] INFO  ParserFactory$ParserThread  - $GPGGA,183240,5335.78,N,1004.58,W,8.0,09,2.4,14.3,M,0,M,,*6B
21386 [main] INFO  ParserFactory$ParserThread  - $GPRMC,183240,A,5335.78,N,1004.58,W,010.0,341.0,261216,,S*60
21892 [main] INFO  ParserFactory$ParserThread  - $GPGGA,183241,5335.99,N,1004.75,E,8.0,08,2.6,14.1,M,0,M,,*79
22900 [main] INFO  ParserFactory$ParserThread  - $GPGGA,183242,5336.12,S,1004.87,W,8.0,03,2.7,14.0,M,0,M,,*73
23703 [main] INFO  ParserFactory$ParserThread  - $GPRMC,183243,A,5336.23,S,1004.91,W,010.2,259.0,261216,,S*7C
23907 [main] INFO  ParserFactory$ParserThread  - $GPGGA,183243,5336.36,N,1005.01,W,8.0,11,2.6,13.9,M,0,M,,*6A
24913 [main] INFO  ParserFactory$ParserThread  - $GPGGA,183244,5336.51,N,1005.24,W,8.0,04,2.7,14.3,M,0,M,,*63
25921 [main] INFO  ParserFactory$ParserThread  - $GPGGA,183245,5336.68,N,1005.3,W,8.0,00,2.7,14.3,M,0,M,,*59
25921 [main] INFO  ParserFactory$ParserThread  - $GPRMC,183245,A,5336.68,N,1005.3,W,010.1,320.0,261216,,S*5E
26927 [main] INFO  ParserFactory$ParserThread  - $GPGGA,183246,5336.8,S,1005.45,W,8.0,10,2.9,14.5,M,0,M,,*4A
27936 [main] INFO  ParserFactory$ParserThread  - $GPGGA,183247,5336.93,N,1005.65,E,8.0,07,2.9,14.3,M,0,M,,*74
28238 [main] INFO  ParserFactory$ParserThread  - $GPRMC,183247,A,5336.93,N,1005.65,E,010.1,18.0,261216,,S*42
28943 [main] INFO  ParserFactory$ParserThread  - $GPGGA,183248,5336.97,N,1005.76,W,8.0,09,2.8,14.1,M,0,M,,*62
29950 [main] INFO  ParserFactory$ParserThread  - $GPGGA,183249,5337.13,N,1005.95,W,8.0,05,2.9,14.4,M,0,M,,*6B
30553 [main] INFO  ParserFactory$ParserThread  - $GPRMC,183249,A,5337.17,N,1006.0,W,010.2,335.0,261216,,S*5C
30956 [main] INFO  ParserFactory$ParserThread  - $GPGGA,183250,5337.27,N,1006.09,E,8.0,05,2.9,14.3,M,0,M,,*77
31962 [main] INFO  ParserFactory$ParserThread  - $GPGGA,183251,5337.4,N,1006.31,E,8.0,10,3.1,14.2,M,0,M,,*40
32765 [main] INFO  ParserFactory$ParserThread  - $GPRMC,183252,A,5337.51,N,1006.33,E,010.0,23.0,261216,,S*40
32866 [main] INFO  ParserFactory$ParserThread  - $GPGGA,183252,5337.61,N,1006.43,E,8.0,07,3.1,14.2,M,0,M,,*73
33871 [main] INFO  ParserFactory$ParserThread  - $GPGGA,183253,5337.75,S,1006.55,E,8.0,02,3.1,14.3,M,0,M,,*69
34878 [main] INFO  ParserFactory$ParserThread  - $GPGGA,183254,5337.94,S,1006.68,E,8.0,00,3.2,14.3,M,0,M,,*6E
35080 [main] INFO  ParserFactory$ParserThread  - $GPRMC,183254,A,5337.94,S,1006.68,E,010.1,120.0,261216,,S*6F
35886 [main] INFO  ParserFactory$ParserThread  - $GPGGA,183255,5338.12,S,1006.74,E,8.0,04,3.2,14.3,M,0,M,,*67
36893 [main] INFO  ParserFactory$ParserThread  - $GPGGA,183256,5338.24,S,1006.86,W,8.0,07,3.1,14.1,M,0,M,,*7C
37298 [main] INFO  ParserFactory$ParserThread  - $GPRMC,183256,A,5338.24,S,1006.86,W,010.2,298.0,261216,,S*78
37902 [main] INFO  ParserFactory$ParserThread  - $GPGGA,183257,5338.37,S,1006.98,E,8.0,05,3.2,14.4,M,0,M,,*66
38907 [main] INFO  ParserFactory$ParserThread  - $GPGGA,183258,5338.48,N,1007.09,E,8.0,09,3.2,14.5,M,0,M,,*78
39609 [main] INFO  ParserFactory$ParserThread  - $GPRMC,183259,A,5338.59,N,1007.19,E,010.2,50.0,261216,,S*43
39913 [main] INFO  ParserFactory$ParserThread  - $GPGGA,183259,5338.73,N,1007.24,W,8.0,09,3.2,14.2,M,0,M,,*6B
40919 [main] INFO  ParserFactory$ParserThread  - $GPGGA,183300,5338.92,N,1007.39,E,8.0,04,3.1,14.6,M,0,M,,*7D
41923 [main] INFO  ParserFactory$ParserThread  - $GPRMC,183301,A,5339.05,N,1007.47,E,010.0,4.0,261216,,S*7F
41924 [main] INFO  ParserFactory$ParserThread  - $GPGGA,183301,5339.1,N,1007.57,W,8.0,05,3.3,14.6,M,0,M,,*5E
42930 [main] INFO  ParserFactory$ParserThread  - $GPGGA,183302,5339.2,N,1007.72,W,8.0,09,3.1,15.0,M,0,M,,*50
43937 [main] INFO  ParserFactory$ParserThread  - $GPGGA,183303,5339.41,N,1007.87,E,8.0,08,3.0,15.0,M,0,M,,*7E
44139 [main] INFO  ParserFactory$ParserThread  - $GPRMC,183303,A,5339.41,N,1007.87,E,010.2,90.0,261216,,S*4E
44942 [main] INFO  ParserFactory$ParserThread  - $GPGGA,183304,5339.57,S,1008.0,W,8.0,06,3.1,15.3,M,0,M,,*4D
45947 [main] INFO  ParserFactory$ParserThread  - $GPGGA,183305,5339.81,N,1008.15,W,8.0,00,3.1,15.5,M,0,M,,*6E
46451 [main] INFO  ParserFactory$ParserThread  - $GPRMC,183305,A,5339.89,N,1008.23,E,010.2,65.0,261216,,S*47
46955 [main] INFO  ParserFactory$ParserThread  - $GPGGA,183306,5339.91,N,1008.31,E,8.0,04,3.2,15.7,M,0,M,,*7D
47960 [main] INFO  ParserFactory$ParserThread  - $GPGGA,183307,5340.12,N,1008.46,E,8.0,01,3.2,16.0,M,0,M,,*78
48764 [main] INFO  ParserFactory$ParserThread  - $GPRMC,183308,A,5340.27,N,1008.53,W,010.2,323.0,261216,,S*64
48865 [main] INFO  ParserFactory$ParserThread  - $GPGGA,183308,5340.38,S,1008.62,W,8.0,01,3.2,16.0,M,0,M,,*76
49871 [main] INFO  ParserFactory$ParserThread  - $GPGGA,183309,5340.58,S,1008.77,E,8.0,00,3.3,16.1,M,0,M,,*66
50877 [main] INFO  ParserFactory$ParserThread  - $GPGGA,183310,5340.76,S,1008.98,E,8.0,03,3.5,16.2,M,0,M,,*65
50979 [main] INFO  ParserFactory$ParserThread  - $GPRMC,183310,A,5340.76,S,1008.98,E,010.2,184.0,261216,,S*6E
51884 [main] INFO  ParserFactory$ParserThread  - $GPGGA,183311,5341.02,S,1009.0,W,8.0,06,3.7,15.9,M,0,M,,*4B
52889 [main] INFO  ParserFactory$ParserThread  - $GPGGA,183312,5341.08,N,1009.21,E,8.0,06,3.7,15.9,M,0,M,,*7E
53292 [main] INFO  ParserFactory$ParserThread  - $GPRMC,183312,A,5341.08,N,1009.21,E,010.1,90.0,261216,,S*4D
53894 [main] INFO  ParserFactory$ParserThread  - $GPGGA,183313,5341.18,N,1009.31,E,8.0,08,3.7,16.0,M,0,M,,*7B
54898 [main] INFO  ParserFactory$ParserThread  - $GPGGA,183314,5341.36,S,1009.37,W,8.0,08,3.7,16.1,M,0,M,,*78
55501 [main] INFO  ParserFactory$ParserThread  - $GPRMC,183314,A,5341.39,S,1009.41,W,010.2,242.0,261216,,S*7E
55904 [main] INFO  ParserFactory$ParserThread  - $GPGGA,183315,5341.48,S,1009.45,W,8.0,08,3.7,16.1,M,0,M,,*75
56911 [main] INFO  ParserFactory$ParserThread  - $GPGGA,183316,5341.63,S,1009.7,E,8.0,07,3.7,16.0,M,0,M,,*55
57815 [main] INFO  ParserFactory$ParserThread  - $GPRMC,183317,A,5341.63,S,1009.76,W,010.1,208.0,261216,,S*7B
57916 [main] INFO  ParserFactory$ParserThread  - $GPGGA,183317,5341.77,S,1009.82,E,8.0,06,3.7,16.3,M,0,M,,*6E
58924 [main] INFO  ParserFactory$ParserThread  - $GPGGA,183318,5341.97,S,1009.96,E,8.0,11,3.7,16.1,M,0,M,,*6E
59927 [main] INFO  ParserFactory$ParserThread  - $GPGGA,183319,5342.02,N,1010.03,E,8.0,06,3.7,16.1,M,0,M,,*7F
60128 [main] INFO  ParserFactory$ParserThread  - $GPRMC,183319,A,5342.02,N,1010.03,E,010.1,49.0,261216,,S*43
60932 [main] INFO  ParserFactory$ParserThread  - $GPGGA,183320,5342.28,S,1010.13,W,8.0,02,3.8,16.1,M,0,M,,*78
61937 [main] INFO  ParserFactory$ParserThread  - $GPGGA,183321,5342.43,N,1010.38,W,8.0,01,3.8,15.9,M,0,M,,*68
62342 [main] INFO  ParserFactory$ParserThread  - $GPRMC,183321,A,5342.43,N,1010.38,W,010.2,359.0,261216,,S*66
62945 [main] INFO  ParserFactory$ParserThread  - $GPGGA,183322,5342.53,N,1010.45,W,8.0,09,3.7,15.9,M,0,M,,*67
63950 [main] INFO  ParserFactory$ParserThread  - $GPGGA,183323,5342.71,S,1010.65,W,8.0,07,3.8,16.2,M,0,M,,*70
64654 [main] INFO  ParserFactory$ParserThread  - $GPRMC,183324,A,5342.79,N,1010.7,W,010.1,322.0,261216,,S*59
64956 [main] INFO  ParserFactory$ParserThread  - $GPGGA,183324,5342.92,S,1010.84,W,8.0,01,3.9,16.2,M,0,M,,*72
65863 [main] INFO  ParserFactory$ParserThread  - $GPGGA,183325,5343.05,S,1010.97,W,8.0,00,3.7,16.2,M,0,M,,*71
66868 [main] INFO  ParserFactory$ParserThread  - $GPGGA,183326,5343.17,S,1011.12,E,8.0,07,3.5,16.4,M,0,M,,*6C
66970 [main] INFO  ParserFactory$ParserThread  - $GPRMC,183326,A,5343.17,S,1011.12,E,010.1,199.0,261216,,S*6A
67873 [main] INFO  ParserFactory$ParserThread  - $GPGGA,183327,5343.33,S,1011.28,W,8.0,07,3.7,16.3,M,0,M,,*75
68878 [main] INFO  ParserFactory$ParserThread  - $GPGGA,183328,5343.45,S,1011.54,E,8.0,05,3.7,16.3,M,0,M,,*60
69180 [main] INFO  ParserFactory$ParserThread  - $GPRMC,183328,A,5343.45,S,1011.54,E,010.1,101.0,261216,,S*60
69886 [main] INFO  ParserFactory$ParserThread  - $GPGGA,183329,5343.6,S,1011.7,E,8.0,00,3.6,16.2,M,0,M,,*65
70893 [main] INFO  ParserFactory$ParserThread  - $GPGGA,183330,5343.73,S,1011.92,W,8.0,07,3.7,16.2,M,0,M,,*77
71495 [main] INFO  ParserFactory$ParserThread  - $GPRMC,183330,A,5343.76,S,1011.98,W,010.1,292.0,261216,,S*72
71898 [main] INFO  ParserFactory$ParserThread  - $GPGGA,183331,5343.79,N,1012.05,W,8.0,04,3.7,16.1,M,0,M,,*6C
72905 [main] INFO  ParserFactory$ParserThread  - $GPGGA,183332,5343.97,N,1012.19,W,8.0,02,3.8,15.8,M,0,M,,*61
73711 [main] INFO  ParserFactory$ParserThread  - $GPRMC,183333,A,5344.01,N,1012.32,W,010.3,379.0,261216,,S*6E
73913 [main] INFO  ParserFactory$ParserThread  - $GPGGA,183333,5344.15,S,1012.46,W,8.0,08,3.7,16.0,M,0,M,,*74
74917 [main] INFO  ParserFactory$ParserThread  - $GPGGA,183334,5344.33,S,1012.67,E,8.0,04,3.5,16.3,M,0,M,,*6B
75922 [main] INFO  ParserFactory$ParserThread  - $GPGGA,183335,5344.47,N,1012.86,E,8.0,08,3.6,16.1,M,0,M,,*76
76024 [main] INFO  ParserFactory$ParserThread  - $GPRMC,183335,A,5344.47,N,1012.86,E,010.2,79.0,261216,,S*45
76928 [main] INFO  ParserFactory$ParserThread  - $GPGGA,183336,5344.7,N,1012.97,E,8.0,00,3.7,16.1,M,0,M,,*48
77932 [main] INFO  ParserFactory$ParserThread  - $GPGGA,183337,5344.8,N,1013.09,W,8.0,10,3.5,15.9,M,0,M,,*5A
78335 [main] INFO  ParserFactory$ParserThread  - $GPRMC,183337,A,5344.8,N,1013.09,W,010.1,339.0,261216,,S*5C
78938 [main] INFO  ParserFactory$ParserThread  - $GPGGA,183338,5344.86,N,1013.34,E,8.0,08,3.5,15.8,M,0,M,,*77
79943 [main] INFO  ParserFactory$ParserThread  - $GPGGA,183339,5345.01,S,1013.54,E,8.0,08,3.6,16.0,M,0,M,,*6B
80546 [main] INFO  ParserFactory$ParserThread  - $GPRMC,183339,A,5345.13,S,1013.55,W,010.3,285.0,261216,,S*79
80949 [main] INFO  ParserFactory$ParserThread  - $GPGGA,183340,5345.13,N,1013.63,W,8.0,10,3.6,16.1,M,0,M,,*65
81954 [main] INFO  ParserFactory$ParserThread  - $GPGGA,183341,5345.28,N,1013.8,E,8.0,10,3.6,16.1,M,0,M,,*43
82858 [main] INFO  ParserFactory$ParserThread  - $GPRMC,183342,A,5345.4,N,1013.84,E,010.3,56.0,261216,,S*7C
82960 [main] INFO  ParserFactory$ParserThread  - $GPGGA,183342,5345.4,S,1013.91,E,8.0,04,3.8,16.1,M,0,M,,*58
83864 [main] INFO  ParserFactory$ParserThread  - $GPGGA,183343,5345.64,S,1014.04,W,8.0,01,3.8,16.5,M,0,M,,*77
84869 [main] INFO  ParserFactory$ParserThread  - $GPGGA,183344,5345.92,N,1014.17,W,8.0,05,3.9,16.5,M,0,M,,*63
85172 [main] INFO  ParserFactory$ParserThread  - $GPRMC,183344,A,5345.92,N,1014.17,W,010.3,303.0,261216,,S*69
85876 [main] INFO  ParserFactory$ParserThread  - $GPGGA,183345,5346.06,S,1014.31,W,8.0,05,3.9,16.3,M,0,M,,*73
86882 [main] INFO  ParserFactory$ParserThread  - $GPGGA,183346,5346.13,S,1014.39,W,8.0,05,3.8,16.1,M,0,M,,*7F
87385 [main] INFO  ParserFactory$ParserThread  - $GPRMC,183346,A,5346.24,S,1014.52,W,010.2,247.0,261216,,S*79
87888 [main] INFO  ParserFactory$ParserThread  - $GPGGA,183347,5346.29,S,1014.6,E,8.0,09,3.7,16.1,M,0,M,,*5A
88902 [main] INFO  ParserFactory$ParserThread  - $GPGGA,183348,5346.4,S,1014.77,E,8.0,09,3.5,16.1,M,0,M,,*5E
89707 [main] INFO  ParserFactory$ParserThread  - $GPRMC,183349,A,5346.45,S,1014.8,E,010.2,122.0,261216,,S*5C
89908 [main] INFO  ParserFactory$ParserThread  - $GPGGA,183349,5346.47,S,1014.86,E,8.0,06,3.5,16.1,M,0,M,,*69
90915 [main] INFO  ParserFactory$ParserThread  - $GPGGA,183350,5346.66,S,1015.02,E,8.0,04,3.6,16.4,M,0,M,,*6B
91920 [main] INFO  ParserFactory$ParserThread  - $GPGGA,183351,5346.82,S,1015.15,E,8.0,05,3.6,16.5,M,0,M,,*66
91921 [main] INFO  ParserFactory$ParserThread  - $GPRMC,183351,A,5346.82,S,1015.15,E,010.2,155.0,261216,,S*63
92925 [main] INFO  ParserFactory$ParserThread  - $GPGGA,183352,5347.0,N,1015.37,W,8.0,01,3.6,16.5,M,0,M,,*55
93931 [main] INFO  ParserFactory$ParserThread  - $GPGGA,183353,5347.13,N,1015.56,E,8.0,11,3.5,16.5,M,0,M,,*71
94233 [main] INFO  ParserFactory$ParserThread  - $GPRMC,183353,A,5347.13,N,1015.56,E,010.3,60.0,261216,,S*44
94937 [main] INFO  ParserFactory$ParserThread  - $GPGGA,183354,5347.18,S,1015.66,E,8.0,06,3.3,16.4,M,0,M,,*62
95941 [main] INFO  ParserFactory$ParserThread  - $GPGGA,183355,5347.27,S,1015.72,W,8.0,04,3.3,16.6,M,0,M,,*78
96545 [main] INFO  ParserFactory$ParserThread  - $GPRMC,183355,A,5347.29,S,1015.85,W,010.2,228.0,261216,,S*75
96948 [main] INFO  ParserFactory$ParserThread  - $GPGGA,183356,5347.36,S,1016.0,W,8.0,05,3.3,16.7,M,0,M,,*4D
97953 [main] INFO  ParserFactory$ParserThread  - $GPGGA,183357,5347.56,S,1016.1,E,8.0,11,3.1,16.7,M,0,M,,*5E
98759 [main] INFO  ParserFactory$ParserThread  - $GPRMC,183358,A,5347.61,S,1016.22,E,010.2,168.0,261216,,S*6F
98961 [main] INFO  ParserFactory$ParserThread  - $GPGGA,183358,5347.63,S,1016.33,E,8.0,03,3.1,16.4,M,0,M,,*66
99866 [main] INFO  ParserFactory$ParserThread  - $GPGGA,183359,5347.85,S,1016.45,E,8.0,06,3.2,16.2,M,0,M,,*6E
100871 [main] INFO  ParserFactory$ParserThread  - $GPGGA,183400,5348.05,N,1016.48,E,8.0,01,3.2,16.3,M,0,M,,*74
101074 [main] INFO  ParserFactory$ParserThread  - $GPRMC,183400,A,5348.05,N,1016.48,E,010.2,83.0,261216,,S*4D
101878 [main] INFO  ParserFactory$ParserThread  - $GPGGA,183401,5348.11,N,1016.52,E,8.0,10,3.4,16.5,M,0,M,,*7B
102882 [main] INFO  ParserFactory$ParserThread  - $GPGGA,183402,5348.21,S,1016.63,E,8.0,06,3.4,16.9,M,0,M,,*6F
103386 [main] INFO  ParserFactory$ParserThread  - $GPRMC,183402,A,5348.21,S,1016.63,E,010.4,174.0,261216,,S*62
103889 [main] INFO  ParserFactory$ParserThread  - $GPGGA,183403,5348.38,S,1016.86,E,8.0,00,3.4,16.9,M,0,M,,*6B
104896 [main] INFO  ParserFactory$ParserThread  - $GPGGA,183404,5348.47,S,1017.12,E,8.0,10,3.6,16.7,M,0,M,,*65
105599 [main] INFO  ParserFactory$ParserThread  - $GPRMC,183405,A,5348.49,S,1017.24,E,010.3,124.0,261216,,S*6B
105901 [main] INFO  ParserFactory$ParserThread  - $GPGGA,183405,5348.5,S,1017.3,W,8.0,02,3.4,16.4,M,0,M,,*72
106905 [main] INFO  ParserFactory$ParserThread  - $GPGGA,183406,5348.62,S,1017.35,W,8.0,06,3.3,16.4,M,0,M,,*76
107911 [main] INFO  ParserFactory$ParserThread  - $GPRMC,183407,A,5348.64,S,1017.42,W,010.2,240.0,261216,,S*74
107911 [main] INFO  ParserFactory$ParserThread  - $GPGGA,183407,5348.65,N,1017.5,W,8.0,10,3.4,16.6,M,0,M,,*5C
108917 [main] INFO  ParserFactory$ParserThread  - $GPGGA,183408,5348.79,N,1017.57,E,8.0,05,3.5,16.6,M,0,M,,*7E
109921 [main] INFO  ParserFactory$ParserThread  - $GPGGA,183409,5348.94,N,1017.68,E,8.0,03,3.4,16.7,M,0,M,,*76
110223 [main] INFO  ParserFactory$ParserThread  - $GPRMC,183409,A,5348.94,N,1017.68,E,010.3,17.0,261216,,S*43
110928 [main] INFO  ParserFactory$ParserThread  - $GPGGA,183410,5349.0,N,1017.72,E,8.0,10,3.5,16.6,M,0,M,,*4B
111932 [main] INFO  ParserFactory$ParserThread  - $GPGGA,183411,5349.18,N,1017.76,E,8.0,06,3.4,16.3,M,0,M,,*74
112437 [main] INFO  ParserFactory$ParserThread  - $GPRMC,183411,A,5349.29,N,1017.77,E,010.2,61.0,261216,,S*43
112940 [main] INFO  ParserFactory$ParserThread  - $GPGGA,183412,5349.4,N,1017.92,E,8.0,07,3.4,16.0,M,0,M,,*42
113944 [main] INFO  ParserFactory$ParserThread  - $GPGGA,183413,5349.58,S,1018.16,E,8.0,09,3.4,16.1,M,0,M,,*6B
114748 [main] INFO  ParserFactory$ParserThread  - $GPRMC,183414,A,5349.68,N,1018.25,E,010.2,40.0,261216,,S*48
114950 [main] INFO  ParserFactory$ParserThread  - $GPGGA,183414,5349.76,S,1018.35,E,8.0,03,3.5,16.1,M,0,M,,*6A
115957 [main] INFO  ParserFactory$ParserThread  - $GPGGA,183415,5349.97,S,1018.39,E,8.0,07,3.3,16.3,M,0,M,,*68
116863 [main] INFO  ParserFactory$ParserThread  - $GPGGA,183416,5350.12,S,1018.55,W,8.0,10,3.2,16.3,M,0,M,,*71
116964 [main] INFO  ParserFactory$ParserThread  - $GPRMC,183416,A,5350.12,S,1018.55,W,010.3,288.0,261216,,S*70
